[
  {
    "stop_id": "LTFRB_4944",
    "stop_code": "",
    "stop_name": "Baclaran LRT",
    "stop_desc": "",
    "stop_lat": "14.5339",
    "stop_lon": "120.998",
    "zone_id": "",
    "stop_url": "",
    "location_type": "0",
    "parent_station": "",
    "wheelchair_boarding": "0"
  },
  {
    "stop_id": "LTFRB_4945",
    "stop_code": "",
    "stop_name": "EDSA LRT",
    "stop_desc": "",
    "stop_lat": "14.5381",
    "stop_lon": "121.001",
    "zone_id": "",
    "stop_url": "",
    "location_type": "0",
    "parent_station": "",
    "wheelchair_boarding": "0"
  },
  {
    "stop_id": "LTFRB_4946",
    "stop_code": "",
    "stop_name": "Libertad LRT",
    "stop_desc": "",
    "stop_lat": "14.5479",
    "stop_lon": "120.999",
    "zone_id": "",
    "stop_url": "",
    "location_type": "0",
    "parent_station": "",
    "wheelchair_boarding": "0"
  },
  {
    "stop_id": "LTFRB_4947",
    "stop_code": "",
    "stop_name": "Gil Puyat LRT",
    "stop_desc": "",
    "stop_lat": "14.5543",
    "stop_lon": "120.997",
    "zone_id": "",
    "stop_url": "",
    "location_type": "0",
    "parent_station": "",
    "wheelchair_boarding": "0"
  },
  {
    "stop_id": "LTFRB_4948",
    "stop_code": "",
    "stop_name": "Vito Cruz LRT",
    "stop_desc": "",
    "stop_lat": "14.5636",
    "stop_lon": "120.995",
    "zone_id": "",
    "stop_url": "",
    "location_type": "0",
    "parent_station": "",
    "wheelchair_boarding": "0"
  },
  {
    "stop_id": "LTFRB_4949",
    "stop_code": "",
    "stop_name": "Quirino Ave LRT",
    "stop_desc": "",
    "stop_lat": "14.5703",
    "stop_lon": "120.992",
    "zone_id": "",
    "stop_url": "",
    "location_type": "0",
    "parent_station": "",
    "wheelchair_boarding": "0"
  },
  {
    "stop_id": "LTFRB_4950",
    "stop_code": "",
    "stop_name": "Pedro Gil LRT",
    "stop_desc": "",
    "stop_lat": "14.5763",
    "stop_lon": "120.988",
    "zone_id": "",
    "stop_url": "",
    "location_type": "0",
    "parent_station": "",
    "wheelchair_boarding": "0"
  },
  {
    "stop_id": "LTFRB_4951",
    "stop_code": "",
    "stop_name": "UN Ave LRT",
    "stop_desc": "",
    "stop_lat": "14.5826",
    "stop_lon": "120.985",
    "zone_id": "",
    "stop_url": "",
    "location_type": "0",
    "parent_station": "",
    "wheelchair_boarding": "0"
  },
  {
    "stop_id": "LTFRB_4952",
    "stop_code": "",
    "stop_name": "Central Terminal LRT",
    "stop_desc": "",
    "stop_lat": "14.5928",
    "stop_lon": "120.982",
    "zone_id": "",
    "stop_url": "",
    "location_type": "0",
    "parent_station": "",
    "wheelchair_boarding": "0"
  },
  {
    "stop_id": "LTFRB_4953",
    "stop_code": "",
    "stop_name": "Carriedo LRT",
    "stop_desc": "",
    "stop_lat": "14.5991",
    "stop_lon": "120.981",
    "zone_id": "",
    "stop_url": "",
    "location_type": "0",
    "parent_station": "",
    "wheelchair_boarding": "0"
  },
  {
    "stop_id": "LTFRB_4954",
    "stop_code": "",
    "stop_name": "Doroteo Jose LRT",
    "stop_desc": "",
    "stop_lat": "14.6053",
    "stop_lon": "120.982",
    "zone_id": "",
    "stop_url": "",
    "location_type": "0",
    "parent_station": "",
    "wheelchair_boarding": "0"
  },
  {
    "stop_id": "LTFRB_4955",
    "stop_code": "",
    "stop_name": "Bambang LRT",
    "stop_desc": "",
    "stop_lat": "14.6109",
    "stop_lon": "120.982",
    "zone_id": "",
    "stop_url": "",
    "location_type": "0",
    "parent_station": "",
    "wheelchair_boarding": "0"
  },
  {
    "stop_id": "LTFRB_4956",
    "stop_code": "",
    "stop_name": "Tayuman LRT",
    "stop_desc": "",
    "stop_lat": "14.6168",
    "stop_lon": "120.983",
    "zone_id": "",
    "stop_url": "",
    "location_type": "0",
    "parent_station": "",
    "wheelchair_boarding": "0"
  },
  {
    "stop_id": "LTFRB_4957",
    "stop_code": "",
    "stop_name": "Blumentritt LRT",
    "stop_desc": "",
    "stop_lat": "14.6228",
    "stop_lon": "120.983",
    "zone_id": "",
    "stop_url": "",
    "location_type": "0",
    "parent_station": "",
    "wheelchair_boarding": "0"
  },
  {
    "stop_id": "LTFRB_4958",
    "stop_code": "",
    "stop_name": "Abad Santos LRT",
    "stop_desc": "",
    "stop_lat": "14.6306",
    "stop_lon": "120.982",
    "zone_id": "",
    "stop_url": "",
    "location_type": "0",
    "parent_station": "",
    "wheelchair_boarding": "0"
  },
  {
    "stop_id": "LTFRB_4959",
    "stop_code": "",
    "stop_name": "R. Papa LRT",
    "stop_desc": "",
    "stop_lat": "14.636",
    "stop_lon": "120.982",
    "zone_id": "",
    "stop_url": "",
    "location_type": "0",
    "parent_station": "",
    "wheelchair_boarding": "0"
  },
  {
    "stop_id": "LTFRB_4960",
    "stop_code": "",
    "stop_name": "5th Ave LRT ",
    "stop_desc": "",
    "stop_lat": "14.6444",
    "stop_lon": "120.984",
    "zone_id": "",
    "stop_url": "",
    "location_type": "0",
    "parent_station": "",
    "wheelchair_boarding": "0"
  },
  {
    "stop_id": "LTFRB_4961",
    "stop_code": "",
    "stop_name": "Monumento LRT",
    "stop_desc": "",
    "stop_lat": "14.6561",
    "stop_lon": "120.984",
    "zone_id": "",
    "stop_url": "",
    "location_type": "0",
    "parent_station": "",
    "wheelchair_boarding": "0"
  },
  {
    "stop_id": "LTFRB_4962",
    "stop_code": "",
    "stop_name": "LRT Balintawak",
    "stop_desc": "",
    "stop_lat": "14.6574",
    "stop_lon": "121.004",
    "zone_id": "",
    "stop_url": "",
    "location_type": "0",
    "parent_station": "",
    "wheelchair_boarding": "0"
  },
  {
    "stop_id": "LTFRB_4963",
    "stop_code": "",
    "stop_name": "Roosevelt LRT",
    "stop_desc": "",
    "stop_lat": "14.6575",
    "stop_lon": "121.022",
    "zone_id": "",
    "stop_url": "",
    "location_type": "0",
    "parent_station": "",
    "wheelchair_boarding": "0"
  },
  {
    "stop_id": "LTFRB_4977",
    "stop_code": "",
    "stop_name": "Recto LRT",
    "stop_desc": "",
    "stop_lat": "14.6035078518",
    "stop_lon": "120.9834301472",
    "zone_id": "",
    "stop_url": "",
    "location_type": "0",
    "parent_station": "",
    "wheelchair_boarding": "0"
  },
  {
    "stop_id": "LTFRB_4978",
    "stop_code": "",
    "stop_name": "Legarda LRT",
    "stop_desc": "",
    "stop_lat": "14.600777309",
    "stop_lon": "120.9924852848",
    "zone_id": "",
    "stop_url": "",
    "location_type": "0",
    "parent_station": "",
    "wheelchair_boarding": "0"
  },
  {
    "stop_id": "LTFRB_4979",
    "stop_code": "",
    "stop_name": "Pureza LRT",
    "stop_desc": "",
    "stop_lat": "14.6017324837",
    "stop_lon": "121.005038023",
    "zone_id": "",
    "stop_url": "",
    "location_type": "0",
    "parent_station": "",
    "wheelchair_boarding": "0"
  },
  {
    "stop_id": "LTFRB_4980",
    "stop_code": "",
    "stop_name": "V. Mapa LRT",
    "stop_desc": "",
    "stop_lat": "14.6042",
    "stop_lon": "121.017",
    "zone_id": "",
    "stop_url": "",
    "location_type": "0",
    "parent_station": "",
    "wheelchair_boarding": "0"
  },
  {
    "stop_id": "LTFRB_4981",
    "stop_code": "",
    "stop_name": "J. Ruiz LRT",
    "stop_desc": "",
    "stop_lat": "14.6105",
    "stop_lon": "121.026",
    "zone_id": "",
    "stop_url": "",
    "location_type": "0",
    "parent_station": "",
    "wheelchair_boarding": "0"
  },
  {
    "stop_id": "LTFRB_4982",
    "stop_code": "",
    "stop_name": "Gilmore LRT",
    "stop_desc": "",
    "stop_lat": "14.6136",
    "stop_lon": "121.034",
    "zone_id": "",
    "stop_url": "",
    "location_type": "0",
    "parent_station": "",
    "wheelchair_boarding": "0"
  },
  {
    "stop_id": "LTFRB_4983",
    "stop_code": "",
    "stop_name": "Betty Go Belmonte LRT",
    "stop_desc": "",
    "stop_lat": "14.6185",
    "stop_lon": "121.043",
    "zone_id": "",
    "stop_url": "",
    "location_type": "0",
    "parent_station": "",
    "wheelchair_boarding": "0"
  },
  {
    "stop_id": "LTFRB_4984",
    "stop_code": "",
    "stop_name": "Cubao LRT",
    "stop_desc": "",
    "stop_lat": "14.6227",
    "stop_lon": "121.053",
    "zone_id": "",
    "stop_url": "",
    "location_type": "0",
    "parent_station": "",
    "wheelchair_boarding": "0"
  },
  {
    "stop_id": "LTFRB_4985",
    "stop_code": "",
    "stop_name": "Anonas LRT",
    "stop_desc": "",
    "stop_lat": "14.628",
    "stop_lon": "121.065",
    "zone_id": "",
    "stop_url": "",
    "location_type": "0",
    "parent_station": "",
    "wheelchair_boarding": "0"
  },
  {
    "stop_id": "LTFRB_4986",
    "stop_code": "",
    "stop_name": "Katipunan LRT",
    "stop_desc": "",
    "stop_lat": "14.631",
    "stop_lon": "121.073",
    "zone_id": "",
    "stop_url": "",
    "location_type": "0",
    "parent_station": "",
    "wheelchair_boarding": "0"
  },
  {
    "stop_id": "LTFRB_4987",
    "stop_code": "",
    "stop_name": "Santolan LRT",
    "stop_desc": "",
    "stop_lat": "14.6223",
    "stop_lon": "121.086",
    "zone_id": "",
    "stop_url": "",
    "location_type": "0",
    "parent_station": "",
    "wheelchair_boarding": "0"
  },
  {
    "stop_id": "LTFRB_1",
    "stop_code": "",
    "stop_name": "Ang Dating Daan, Balagtas",
    "stop_desc": "",
    "stop_lat": "14.8237",
    "stop_lon": "120.9",
    "zone_id": "",
    "stop_url": "",
    "location_type": "0",
    "parent_station": "",
    "wheelchair_boarding": "0"
  },
  {
    "stop_id": "LTFRB_10",
    "stop_code": "",
    "stop_name": "Vista Lodge, MacArthur Highway, Balagtas",
    "stop_desc": "",
    "stop_lat": "14.8131",
    "stop_lon": "120.913",
    "zone_id": "",
    "stop_url": "",
    "location_type": "0",
    "parent_station": "",
    "wheelchair_boarding": "0"
  },
  {
    "stop_id": "LTFRB_100",
    "stop_code": "",
    "stop_name": "Floresco North Mortuary, MacArthur Highway, Caloocan City",
    "stop_desc": "",
    "stop_lat": "14.6601",
    "stop_lon": "120.984",
    "zone_id": "",
    "stop_url": "",
    "location_type": "0",
    "parent_station": "",
    "wheelchair_boarding": "0"
  },
  {
    "stop_id": "LTFRB_1000",
    "stop_code": "",
    "stop_name": "General Hospital, Commonwealth Avenue, Quezon City",
    "stop_desc": "",
    "stop_lat": "14.6671",
    "stop_lon": "121.073",
    "zone_id": "",
    "stop_url": "",
    "location_type": "0",
    "parent_station": "",
    "wheelchair_boarding": "0"
  },
  {
    "stop_id": "LTFRB_1001",
    "stop_code": "",
    "stop_name": "Loyola Memorial Chapel, Commonwealth Avenue, Quezon City",
    "stop_desc": "",
    "stop_lat": "14.6658",
    "stop_lon": "121.071",
    "zone_id": "",
    "stop_url": "",
    "location_type": "0",
    "parent_station": "",
    "wheelchair_boarding": "0"
  },
  {
    "stop_id": "LTFRB_1002",
    "stop_code": "",
    "stop_name": "Commonwealth Avenue, Quezon City",
    "stop_desc": "",
    "stop_lat": "14.6647",
    "stop_lon": "121.07",
    "zone_id": "",
    "stop_url": "",
    "location_type": "0",
    "parent_station": "",
    "wheelchair_boarding": "0"
  },
  {
    "stop_id": "LTFRB_1003",
    "stop_code": "",
    "stop_name": "St Peter Chapels, Commonwealth Avenue, Quezon City",
    "stop_desc": "",
    "stop_lat": "14.6631",
    "stop_lon": "121.067",
    "zone_id": "",
    "stop_url": "",
    "location_type": "0",
    "parent_station": "",
    "wheelchair_boarding": "0"
  },
  {
    "stop_id": "LTFRB_1004",
    "stop_code": "",
    "stop_name": "Commonwealth Avenue / Central Avenue Intersection, Quezon City",
    "stop_desc": "",
    "stop_lat": "14.6617",
    "stop_lon": "121.065",
    "zone_id": "",
    "stop_url": "",
    "location_type": "0",
    "parent_station": "",
    "wheelchair_boarding": "0"
  },
  {
    "stop_id": "LTFRB_1005",
    "stop_code": "",
    "stop_name": "Social Science Institute, Commonwealth Avenue, Quezon City",
    "stop_desc": "",
    "stop_lat": "14.6605",
    "stop_lon": "121.063",
    "zone_id": "",
    "stop_url": "",
    "location_type": "0",
    "parent_station": "",
    "wheelchair_boarding": "0"
  },
  {
    "stop_id": "LTFRB_1006",
    "stop_code": "",
    "stop_name": "Commonwealth Avenue, Quezon City",
    "stop_desc": "",
    "stop_lat": "14.6589",
    "stop_lon": "121.061",
    "zone_id": "",
    "stop_url": "",
    "location_type": "0",
    "parent_station": "",
    "wheelchair_boarding": "0"
  },
  {
    "stop_id": "LTFRB_1007",
    "stop_code": "",
    "stop_name": "University of The Phillippines - Ayala Land Technohub, Commonwealth Avenue, Quezon City",
    "stop_desc": "",
    "stop_lat": "14.6575",
    "stop_lon": "121.059",
    "zone_id": "",
    "stop_url": "",
    "location_type": "0",
    "parent_station": "",
    "wheelchair_boarding": "0"
  },
  {
    "stop_id": "LTFRB_1008",
    "stop_code": "",
    "stop_name": "University of The Phillippines - Ayala Land Technohub, Commonwealth Avenue, Quezon City",
    "stop_desc": "",
    "stop_lat": "14.6563",
    "stop_lon": "121.057",
    "zone_id": "",
    "stop_url": "",
    "location_type": "0",
    "parent_station": "",
    "wheelchair_boarding": "0"
  },
  {
    "stop_id": "LTFRB_1009",
    "stop_code": "",
    "stop_name": "Commonwealth Avenue / University Avenue Intersection, Quezon City",
    "stop_desc": "",
    "stop_lat": "14.6547",
    "stop_lon": "121.055",
    "zone_id": "",
    "stop_url": "",
    "location_type": "0",
    "parent_station": "",
    "wheelchair_boarding": "0"
  },
  {
    "stop_id": "LTFRB_101",
    "stop_code": "",
    "stop_name": "Bonifacio Market, MacArthur Highway, Caloocan City",
    "stop_desc": "",
    "stop_lat": "14.6576",
    "stop_lon": "120.984",
    "zone_id": "",
    "stop_url": "",
    "location_type": "0",
    "parent_station": "",
    "wheelchair_boarding": "0"
  },
  {
    "stop_id": "LTFRB_1010",
    "stop_code": "",
    "stop_name": "Philippine Coconut Authority, Commonwealth Avenue, Quezon City",
    "stop_desc": "",
    "stop_lat": "14.6536",
    "stop_lon": "121.053",
    "zone_id": "",
    "stop_url": "",
    "location_type": "0",
    "parent_station": "",
    "wheelchair_boarding": "0"
  },
  {
    "stop_id": "LTFRB_1011",
    "stop_code": "",
    "stop_name": "Elliptical Rd / Commonwealth Avenue Intersection, Quezon City",
    "stop_desc": "",
    "stop_lat": "14.6527",
    "stop_lon": "121.052",
    "zone_id": "",
    "stop_url": "",
    "location_type": "0",
    "parent_station": "",
    "wheelchair_boarding": "0"
  },
  {
    "stop_id": "LTFRB_1012",
    "stop_code": "",
    "stop_name": "Agricultural Training Institute, Elliptical Rd, Quezon City",
    "stop_desc": "",
    "stop_lat": "14.6543",
    "stop_lon": "121.049",
    "zone_id": "",
    "stop_url": "",
    "location_type": "0",
    "parent_station": "",
    "wheelchair_boarding": "0"
  },
  {
    "stop_id": "LTFRB_1013",
    "stop_code": "",
    "stop_name": "Bureau of Soil And Water Management, Elliptical Rd, Quezon City",
    "stop_desc": "",
    "stop_lat": "14.6535",
    "stop_lon": "121.047",
    "zone_id": "",
    "stop_url": "",
    "location_type": "0",
    "parent_station": "",
    "wheelchair_boarding": "0"
  },
  {
    "stop_id": "LTFRB_1014",
    "stop_code": "",
    "stop_name": "Elliptical Rd / North Avenue Intersection, Quezon City",
    "stop_desc": "",
    "stop_lat": "14.6514",
    "stop_lon": "121.047",
    "zone_id": "",
    "stop_url": "",
    "location_type": "0",
    "parent_station": "",
    "wheelchair_boarding": "0"
  },
  {
    "stop_id": "LTFRB_1015",
    "stop_code": "",
    "stop_name": "Dept. of Env & Natural Resources, Visayas Ave, Quezon City",
    "stop_desc": "",
    "stop_lat": "14.6557",
    "stop_lon": "121.047",
    "zone_id": "",
    "stop_url": "",
    "location_type": "0",
    "parent_station": "",
    "wheelchair_boarding": "0"
  },
  {
    "stop_id": "LTFRB_1016",
    "stop_code": "",
    "stop_name": "Visayas Avenue / Lands Intersection, Quezon City",
    "stop_desc": "",
    "stop_lat": "14.6577",
    "stop_lon": "121.046",
    "zone_id": "",
    "stop_url": "",
    "location_type": "0",
    "parent_station": "",
    "wheelchair_boarding": "0"
  },
  {
    "stop_id": "LTFRB_1017",
    "stop_code": "",
    "stop_name": "Visayas Avenue / Road 1 Intersection, Quezon City",
    "stop_desc": "",
    "stop_lat": "14.6597",
    "stop_lon": "121.045",
    "zone_id": "",
    "stop_url": "",
    "location_type": "0",
    "parent_station": "",
    "wheelchair_boarding": "0"
  },
  {
    "stop_id": "LTFRB_1018",
    "stop_code": "",
    "stop_name": "Visayas Avenue / Road 1 Intersection, Quezon City",
    "stop_desc": "",
    "stop_lat": "14.6616",
    "stop_lon": "121.044",
    "zone_id": "",
    "stop_url": "",
    "location_type": "0",
    "parent_station": "",
    "wheelchair_boarding": "0"
  },
  {
    "stop_id": "LTFRB_1019",
    "stop_code": "",
    "stop_name": "Visayas Avenue Quezon City",
    "stop_desc": "",
    "stop_lat": "14.6642",
    "stop_lon": "121.044",
    "zone_id": "",
    "stop_url": "",
    "location_type": "0",
    "parent_station": "",
    "wheelchair_boarding": "0"
  },
  {
    "stop_id": "LTFRB_102",
    "stop_code": "",
    "stop_name": "Monumento, Rizal Avenue, Caloocan City",
    "stop_desc": "",
    "stop_lat": "14.6564",
    "stop_lon": "120.984",
    "zone_id": "",
    "stop_url": "",
    "location_type": "0",
    "parent_station": "",
    "wheelchair_boarding": "0"
  },
  {
    "stop_id": "LTFRB_1020",
    "stop_code": "",
    "stop_name": "Visayas Avenue / A. Limqueco Intersection, Quezon City",
    "stop_desc": "",
    "stop_lat": "14.6667",
    "stop_lon": "121.043",
    "zone_id": "",
    "stop_url": "",
    "location_type": "0",
    "parent_station": "",
    "wheelchair_boarding": "0"
  },
  {
    "stop_id": "LTFRB_1021",
    "stop_code": "",
    "stop_name": "Visayas Avenue / Windgate Intersection, Quezon City",
    "stop_desc": "",
    "stop_lat": "14.6687",
    "stop_lon": "121.043",
    "zone_id": "",
    "stop_url": "",
    "location_type": "0",
    "parent_station": "",
    "wheelchair_boarding": "0"
  },
  {
    "stop_id": "LTFRB_1022",
    "stop_code": "",
    "stop_name": "Capitol Allied Trading, Visayas Ave, Quezon City",
    "stop_desc": "",
    "stop_lat": "14.6704",
    "stop_lon": "121.043",
    "zone_id": "",
    "stop_url": "",
    "location_type": "0",
    "parent_station": "",
    "wheelchair_boarding": "0"
  },
  {
    "stop_id": "LTFRB_1023",
    "stop_code": "",
    "stop_name": "Visayas Avenue Quezon City",
    "stop_desc": "",
    "stop_lat": "14.6736",
    "stop_lon": "121.044",
    "zone_id": "",
    "stop_url": "",
    "location_type": "0",
    "parent_station": "",
    "wheelchair_boarding": "0"
  },
  {
    "stop_id": "LTFRB_1024",
    "stop_code": "",
    "stop_name": "Visayas Avenue Wet and Dry Market, Visayas Avenue Quezon City",
    "stop_desc": "",
    "stop_lat": "14.6753",
    "stop_lon": "121.044",
    "zone_id": "",
    "stop_url": "",
    "location_type": "0",
    "parent_station": "",
    "wheelchair_boarding": "0"
  },
  {
    "stop_id": "LTFRB_1025",
    "stop_code": "",
    "stop_name": "City Plaza, Tandang Sora, Quezon City",
    "stop_desc": "",
    "stop_lat": "14.6758",
    "stop_lon": "121.045",
    "zone_id": "",
    "stop_url": "",
    "location_type": "0",
    "parent_station": "",
    "wheelchair_boarding": "0"
  },
  {
    "stop_id": "LTFRB_1026",
    "stop_code": "",
    "stop_name": "Tandang Sora / Himlayan Road Intersection, Quezon City",
    "stop_desc": "",
    "stop_lat": "14.6745",
    "stop_lon": "121.047",
    "zone_id": "",
    "stop_url": "",
    "location_type": "0",
    "parent_station": "",
    "wheelchair_boarding": "0"
  },
  {
    "stop_id": "LTFRB_1027",
    "stop_code": "",
    "stop_name": "Tandang Sora / Congressional Avenue Extension Intersection, Quezon City",
    "stop_desc": "",
    "stop_lat": "14.6733",
    "stop_lon": "121.049",
    "zone_id": "",
    "stop_url": "",
    "location_type": "0",
    "parent_station": "",
    "wheelchair_boarding": "0"
  },
  {
    "stop_id": "LTFRB_1028",
    "stop_code": "",
    "stop_name": "Congressional Avenue Extension, Quezon City",
    "stop_desc": "",
    "stop_lat": "14.6737",
    "stop_lon": "121.051",
    "zone_id": "",
    "stop_url": "",
    "location_type": "0",
    "parent_station": "",
    "wheelchair_boarding": "0"
  },
  {
    "stop_id": "LTFRB_1029",
    "stop_code": "",
    "stop_name": "Tandang Sora, Quezon City",
    "stop_desc": "",
    "stop_lat": "14.6725",
    "stop_lon": "121.05",
    "zone_id": "",
    "stop_url": "",
    "location_type": "0",
    "parent_station": "",
    "wheelchair_boarding": "0"
  },
  {
    "stop_id": "LTFRB_103",
    "stop_code": "",
    "stop_name": "MacDonalds, Rizal Avenue, Caloocan City",
    "stop_desc": "",
    "stop_lat": "14.6538",
    "stop_lon": "120.984",
    "zone_id": "",
    "stop_url": "",
    "location_type": "0",
    "parent_station": "",
    "wheelchair_boarding": "0"
  },
  {
    "stop_id": "LTFRB_1030",
    "stop_code": "",
    "stop_name": "Tandang Sora, Quezon City",
    "stop_desc": "",
    "stop_lat": "14.6713",
    "stop_lon": "121.051",
    "zone_id": "",
    "stop_url": "",
    "location_type": "0",
    "parent_station": "",
    "wheelchair_boarding": "0"
  },
  {
    "stop_id": "LTFRB_1031",
    "stop_code": "",
    "stop_name": "Tandang Sora, Quezon City",
    "stop_desc": "",
    "stop_lat": "14.6703",
    "stop_lon": "121.052",
    "zone_id": "",
    "stop_url": "",
    "location_type": "0",
    "parent_station": "",
    "wheelchair_boarding": "0"
  },
  {
    "stop_id": "LTFRB_1032",
    "stop_code": "",
    "stop_name": "Casanova Drive / Tandang Sora Intersection, Quezon City",
    "stop_desc": "",
    "stop_lat": "14.6692",
    "stop_lon": "121.054",
    "zone_id": "",
    "stop_url": "",
    "location_type": "0",
    "parent_station": "",
    "wheelchair_boarding": "0"
  },
  {
    "stop_id": "LTFRB_1033",
    "stop_code": "",
    "stop_name": "Culiat High School, Tandang Sora, Quezon City",
    "stop_desc": "",
    "stop_lat": "14.668",
    "stop_lon": "121.056",
    "zone_id": "",
    "stop_url": "",
    "location_type": "0",
    "parent_station": "",
    "wheelchair_boarding": "0"
  },
  {
    "stop_id": "LTFRB_1034",
    "stop_code": "",
    "stop_name": "New Era High School, Tandang Sora, Quezon City",
    "stop_desc": "",
    "stop_lat": "14.6674",
    "stop_lon": "121.059",
    "zone_id": "",
    "stop_url": "",
    "location_type": "0",
    "parent_station": "",
    "wheelchair_boarding": "0"
  },
  {
    "stop_id": "LTFRB_1035",
    "stop_code": "",
    "stop_name": "Tandang Sora / Manguiat Intersection, Quezon City",
    "stop_desc": "",
    "stop_lat": "14.6668",
    "stop_lon": "121.061",
    "zone_id": "",
    "stop_url": "",
    "location_type": "0",
    "parent_station": "",
    "wheelchair_boarding": "0"
  },
  {
    "stop_id": "LTFRB_1036",
    "stop_code": "",
    "stop_name": "Tandang Sora, Quezon City",
    "stop_desc": "",
    "stop_lat": "14.6659",
    "stop_lon": "121.063",
    "zone_id": "",
    "stop_url": "",
    "location_type": "0",
    "parent_station": "",
    "wheelchair_boarding": "0"
  },
  {
    "stop_id": "LTFRB_1037",
    "stop_code": "",
    "stop_name": "EastWest Bank, Tandang Sora, Quezon City",
    "stop_desc": "",
    "stop_lat": "14.6655",
    "stop_lon": "121.065",
    "zone_id": "",
    "stop_url": "",
    "location_type": "0",
    "parent_station": "",
    "wheelchair_boarding": "0"
  },
  {
    "stop_id": "LTFRB_1038",
    "stop_code": "",
    "stop_name": "Tandang Sora / Demetria Reynaldo Intersection, Quezon City",
    "stop_desc": "",
    "stop_lat": "14.6645",
    "stop_lon": "121.067",
    "zone_id": "",
    "stop_url": "",
    "location_type": "0",
    "parent_station": "",
    "wheelchair_boarding": "0"
  },
  {
    "stop_id": "LTFRB_1039",
    "stop_code": "",
    "stop_name": "Congressional Avenue Extension, Quezon City",
    "stop_desc": "",
    "stop_lat": "14.6729",
    "stop_lon": "121.048",
    "zone_id": "",
    "stop_url": "",
    "location_type": "0",
    "parent_station": "",
    "wheelchair_boarding": "0"
  },
  {
    "stop_id": "LTFRB_104",
    "stop_code": "",
    "stop_name": "Ever Gotesco Grand Central, Rizal Avenue, Caloocan City",
    "stop_desc": "",
    "stop_lat": "14.6556",
    "stop_lon": "120.984",
    "zone_id": "",
    "stop_url": "",
    "location_type": "0",
    "parent_station": "",
    "wheelchair_boarding": "0"
  },
  {
    "stop_id": "LTFRB_1040",
    "stop_code": "",
    "stop_name": "Congressional Avenue Extension, Quezon City",
    "stop_desc": "",
    "stop_lat": "14.6725",
    "stop_lon": "121.046",
    "zone_id": "",
    "stop_url": "",
    "location_type": "0",
    "parent_station": "",
    "wheelchair_boarding": "0"
  },
  {
    "stop_id": "LTFRB_1041",
    "stop_code": "",
    "stop_name": "Visayas Avenue / Congressional Avenue Extension, Quezon City",
    "stop_desc": "",
    "stop_lat": "14.6721",
    "stop_lon": "121.044",
    "zone_id": "",
    "stop_url": "",
    "location_type": "0",
    "parent_station": "",
    "wheelchair_boarding": "0"
  },
  {
    "stop_id": "LTFRB_1042",
    "stop_code": "",
    "stop_name": "Quirino Highway, Quezon City",
    "stop_desc": "",
    "stop_lat": "14.7185",
    "stop_lon": "121.04",
    "zone_id": "",
    "stop_url": "",
    "location_type": "0",
    "parent_station": "",
    "wheelchair_boarding": "0"
  },
  {
    "stop_id": "LTFRB_1043",
    "stop_code": "",
    "stop_name": "Novaliches Elementary School, Quirino Highway, Quezon City",
    "stop_desc": "",
    "stop_lat": "14.7168",
    "stop_lon": "121.04",
    "zone_id": "",
    "stop_url": "",
    "location_type": "0",
    "parent_station": "",
    "wheelchair_boarding": "0"
  },
  {
    "stop_id": "LTFRB_1044",
    "stop_code": "",
    "stop_name": "Quirino Highway, Quezon City",
    "stop_desc": "",
    "stop_lat": "14.7151",
    "stop_lon": "121.04",
    "zone_id": "",
    "stop_url": "",
    "location_type": "0",
    "parent_station": "",
    "wheelchair_boarding": "0"
  },
  {
    "stop_id": "LTFRB_1045",
    "stop_code": "",
    "stop_name": "Quirino Highway, Quezon City",
    "stop_desc": "",
    "stop_lat": "14.7135",
    "stop_lon": "121.04",
    "zone_id": "",
    "stop_url": "",
    "location_type": "0",
    "parent_station": "",
    "wheelchair_boarding": "0"
  },
  {
    "stop_id": "LTFRB_1046",
    "stop_code": "",
    "stop_name": "Quirino Highway / Villaflor Intersection, Quezon City",
    "stop_desc": "",
    "stop_lat": "14.7119",
    "stop_lon": "121.04",
    "zone_id": "",
    "stop_url": "",
    "location_type": "0",
    "parent_station": "",
    "wheelchair_boarding": "0"
  },
  {
    "stop_id": "LTFRB_1047",
    "stop_code": "",
    "stop_name": "Quirino Highway / Premiere Street Intersection, Quezon City",
    "stop_desc": "",
    "stop_lat": "14.7101",
    "stop_lon": "121.039",
    "zone_id": "",
    "stop_url": "",
    "location_type": "0",
    "parent_station": "",
    "wheelchair_boarding": "0"
  },
  {
    "stop_id": "LTFRB_1048",
    "stop_code": "",
    "stop_name": "SM Cinema,Quirino Highway, Quezon City",
    "stop_desc": "",
    "stop_lat": "14.7082",
    "stop_lon": "121.039",
    "zone_id": "",
    "stop_url": "",
    "location_type": "0",
    "parent_station": "",
    "wheelchair_boarding": "0"
  },
  {
    "stop_id": "LTFRB_1049",
    "stop_code": "",
    "stop_name": "St John of Beverly, Quirino Highway, Quezon City",
    "stop_desc": "",
    "stop_lat": "14.7058",
    "stop_lon": "121.038",
    "zone_id": "",
    "stop_url": "",
    "location_type": "0",
    "parent_station": "",
    "wheelchair_boarding": "0"
  },
  {
    "stop_id": "LTFRB_105",
    "stop_code": "",
    "stop_name": "Rizal Avenue / Asistio Intersection, Caloocan City",
    "stop_desc": "",
    "stop_lat": "14.6516",
    "stop_lon": "120.984",
    "zone_id": "",
    "stop_url": "",
    "location_type": "0",
    "parent_station": "",
    "wheelchair_boarding": "0"
  },
  {
    "stop_id": "LTFRB_1050",
    "stop_code": "",
    "stop_name": "Quirino Highway / Rockville Avenue Intersection, Quezon City",
    "stop_desc": "",
    "stop_lat": "14.7013",
    "stop_lon": "121.035",
    "zone_id": "",
    "stop_url": "",
    "location_type": "0",
    "parent_station": "",
    "wheelchair_boarding": "0"
  },
  {
    "stop_id": "LTFRB_1051",
    "stop_code": "",
    "stop_name": "Quirino Highway / Evangelista Intersection, Quezon City",
    "stop_desc": "",
    "stop_lat": "14.7036",
    "stop_lon": "121.037",
    "zone_id": "",
    "stop_url": "",
    "location_type": "0",
    "parent_station": "",
    "wheelchair_boarding": "0"
  },
  {
    "stop_id": "LTFRB_1052",
    "stop_code": "",
    "stop_name": "Quirino Highway / T. Urbano Intersection, Quezon City",
    "stop_desc": "",
    "stop_lat": "14.699",
    "stop_lon": "121.034",
    "zone_id": "",
    "stop_url": "",
    "location_type": "0",
    "parent_station": "",
    "wheelchair_boarding": "0"
  },
  {
    "stop_id": "LTFRB_1053",
    "stop_code": "",
    "stop_name": "Quirino Highway / T. Carreon Intersection, Quezon City",
    "stop_desc": "",
    "stop_lat": "14.6966",
    "stop_lon": "121.032",
    "zone_id": "",
    "stop_url": "",
    "location_type": "0",
    "parent_station": "",
    "wheelchair_boarding": "0"
  },
  {
    "stop_id": "LTFRB_1054",
    "stop_code": "",
    "stop_name": "Quirino Highway / Goodwill Homes 2 Intersection, Quezon City",
    "stop_desc": "",
    "stop_lat": "14.695",
    "stop_lon": "121.031",
    "zone_id": "",
    "stop_url": "",
    "location_type": "0",
    "parent_station": "",
    "wheelchair_boarding": "0"
  },
  {
    "stop_id": "LTFRB_1055",
    "stop_code": "",
    "stop_name": "Quirino Highway, Quezon City",
    "stop_desc": "",
    "stop_lat": "14.6932",
    "stop_lon": "121.03",
    "zone_id": "",
    "stop_url": "",
    "location_type": "0",
    "parent_station": "",
    "wheelchair_boarding": "0"
  },
  {
    "stop_id": "LTFRB_1056",
    "stop_code": "",
    "stop_name": "Quirino Highway, Quezon City",
    "stop_desc": "",
    "stop_lat": "14.6918",
    "stop_lon": "121.029",
    "zone_id": "",
    "stop_url": "",
    "location_type": "0",
    "parent_station": "",
    "wheelchair_boarding": "0"
  },
  {
    "stop_id": "LTFRB_1057",
    "stop_code": "",
    "stop_name": "Quirino Highway / Mindanao Avenue Intersection, Quezon City",
    "stop_desc": "",
    "stop_lat": "14.6903",
    "stop_lon": "121.028",
    "zone_id": "",
    "stop_url": "",
    "location_type": "0",
    "parent_station": "",
    "wheelchair_boarding": "0"
  },
  {
    "stop_id": "LTFRB_1058",
    "stop_code": "",
    "stop_name": "Pacific Global Hospital, Mindanao Avenue, Quezon City",
    "stop_desc": "",
    "stop_lat": "14.6888",
    "stop_lon": "121.03",
    "zone_id": "",
    "stop_url": "",
    "location_type": "0",
    "parent_station": "",
    "wheelchair_boarding": "0"
  },
  {
    "stop_id": "LTFRB_1059",
    "stop_code": "",
    "stop_name": "Mindanao Avenue, Quezon City",
    "stop_desc": "",
    "stop_lat": "14.6866",
    "stop_lon": "121.032",
    "zone_id": "",
    "stop_url": "",
    "location_type": "0",
    "parent_station": "",
    "wheelchair_boarding": "0"
  },
  {
    "stop_id": "LTFRB_1060",
    "stop_code": "",
    "stop_name": "Mindanao Avenue / Don Vicente Intersection, Quezon City",
    "stop_desc": "",
    "stop_lat": "14.6838",
    "stop_lon": "121.032",
    "zone_id": "",
    "stop_url": "",
    "location_type": "0",
    "parent_station": "",
    "wheelchair_boarding": "0"
  },
  {
    "stop_id": "LTFRB_1061",
    "stop_code": "",
    "stop_name": "Mindanao Avenue, Quezon City",
    "stop_desc": "",
    "stop_lat": "14.6814",
    "stop_lon": "121.032",
    "zone_id": "",
    "stop_url": "",
    "location_type": "0",
    "parent_station": "",
    "wheelchair_boarding": "0"
  },
  {
    "stop_id": "LTFRB_1062",
    "stop_code": "",
    "stop_name": "Mindanao Avenue, Quezon City",
    "stop_desc": "",
    "stop_lat": "14.6792",
    "stop_lon": "121.032",
    "zone_id": "",
    "stop_url": "",
    "location_type": "0",
    "parent_station": "",
    "wheelchair_boarding": "0"
  },
  {
    "stop_id": "LTFRB_1063",
    "stop_code": "",
    "stop_name": "Mindanao Avenue / Tanding Sora Avenue Intersection, Quezon City",
    "stop_desc": "",
    "stop_lat": "14.6773",
    "stop_lon": "121.035",
    "zone_id": "",
    "stop_url": "",
    "location_type": "0",
    "parent_station": "",
    "wheelchair_boarding": "0"
  },
  {
    "stop_id": "LTFRB_1064",
    "stop_code": "",
    "stop_name": "Mindanao Avenue, Quezon City",
    "stop_desc": "",
    "stop_lat": "14.6747",
    "stop_lon": "121.032",
    "zone_id": "",
    "stop_url": "",
    "location_type": "0",
    "parent_station": "",
    "wheelchair_boarding": "0"
  },
  {
    "stop_id": "LTFRB_1065",
    "stop_code": "",
    "stop_name": "Mindanao Avenue, Quezon City",
    "stop_desc": "",
    "stop_lat": "14.6727",
    "stop_lon": "121.032",
    "zone_id": "",
    "stop_url": "",
    "location_type": "0",
    "parent_station": "",
    "wheelchair_boarding": "0"
  },
  {
    "stop_id": "LTFRB_1066",
    "stop_code": "",
    "stop_name": "Mindanao Avenue, Quezon City",
    "stop_desc": "",
    "stop_lat": "14.6705",
    "stop_lon": "121.032",
    "zone_id": "",
    "stop_url": "",
    "location_type": "0",
    "parent_station": "",
    "wheelchair_boarding": "0"
  },
  {
    "stop_id": "LTFRB_1067",
    "stop_code": "",
    "stop_name": "Mindanao Avenue, Quezon City",
    "stop_desc": "",
    "stop_lat": "14.6684",
    "stop_lon": "121.033",
    "zone_id": "",
    "stop_url": "",
    "location_type": "0",
    "parent_station": "",
    "wheelchair_boarding": "0"
  },
  {
    "stop_id": "LTFRB_1068",
    "stop_code": "",
    "stop_name": "Mindanao Avenue, Quezon City",
    "stop_desc": "",
    "stop_lat": "14.6669",
    "stop_lon": "121.035",
    "zone_id": "",
    "stop_url": "",
    "location_type": "0",
    "parent_station": "",
    "wheelchair_boarding": "0"
  },
  {
    "stop_id": "LTFRB_1069",
    "stop_code": "",
    "stop_name": "Mindanao Avenue, Quezon City",
    "stop_desc": "",
    "stop_lat": "14.6653",
    "stop_lon": "121.036",
    "zone_id": "",
    "stop_url": "",
    "location_type": "0",
    "parent_station": "",
    "wheelchair_boarding": "0"
  },
  {
    "stop_id": "LTFRB_107",
    "stop_code": "",
    "stop_name": "Asia Trust Bank, Rizal Avenue, Caloocan City",
    "stop_desc": "",
    "stop_lat": "14.6462",
    "stop_lon": "120.984",
    "zone_id": "",
    "stop_url": "",
    "location_type": "0",
    "parent_station": "",
    "wheelchair_boarding": "0"
  },
  {
    "stop_id": "LTFRB_1070",
    "stop_code": "",
    "stop_name": "Mindanao Avenue / Road 16 Intersection, Quezon City",
    "stop_desc": "",
    "stop_lat": "14.6637",
    "stop_lon": "121.036",
    "zone_id": "",
    "stop_url": "",
    "location_type": "0",
    "parent_station": "",
    "wheelchair_boarding": "0"
  },
  {
    "stop_id": "LTFRB_1071",
    "stop_code": "",
    "stop_name": "Mindanao Avenue, Quezon City",
    "stop_desc": "",
    "stop_lat": "14.6619",
    "stop_lon": "121.037",
    "zone_id": "",
    "stop_url": "",
    "location_type": "0",
    "parent_station": "",
    "wheelchair_boarding": "0"
  },
  {
    "stop_id": "LTFRB_1072",
    "stop_code": "",
    "stop_name": "Mindanao Avenue / Road 10 Intersection, Quezon City",
    "stop_desc": "",
    "stop_lat": "14.6604",
    "stop_lon": "121.036",
    "zone_id": "",
    "stop_url": "",
    "location_type": "0",
    "parent_station": "",
    "wheelchair_boarding": "0"
  },
  {
    "stop_id": "LTFRB_1073",
    "stop_code": "",
    "stop_name": "Mindanao Avenue, Quezon City",
    "stop_desc": "",
    "stop_lat": "14.6586",
    "stop_lon": "121.036",
    "zone_id": "",
    "stop_url": "",
    "location_type": "0",
    "parent_station": "",
    "wheelchair_boarding": "0"
  },
  {
    "stop_id": "LTFRB_1074",
    "stop_code": "",
    "stop_name": "Mindanao Avenue, Quezon City",
    "stop_desc": "",
    "stop_lat": "14.6571",
    "stop_lon": "121.036",
    "zone_id": "",
    "stop_url": "",
    "location_type": "0",
    "parent_station": "",
    "wheelchair_boarding": "0"
  },
  {
    "stop_id": "LTFRB_1075",
    "stop_code": "",
    "stop_name": "Mindanao Avenue, Quezon City",
    "stop_desc": "",
    "stop_lat": "14.6557",
    "stop_lon": "121.035",
    "zone_id": "",
    "stop_url": "",
    "location_type": "0",
    "parent_station": "",
    "wheelchair_boarding": "0"
  },
  {
    "stop_id": "LTFRB_1076",
    "stop_code": "",
    "stop_name": "North Avenue, Quezon City",
    "stop_desc": "",
    "stop_lat": "14.6542",
    "stop_lon": "121.036",
    "zone_id": "",
    "stop_url": "",
    "location_type": "0",
    "parent_station": "",
    "wheelchair_boarding": "0"
  },
  {
    "stop_id": "LTFRB_1077",
    "stop_code": "",
    "stop_name": "SM Hypermarket, North Avenue, Quezon City",
    "stop_desc": "",
    "stop_lat": "14.6548",
    "stop_lon": "121.034",
    "zone_id": "",
    "stop_url": "",
    "location_type": "0",
    "parent_station": "",
    "wheelchair_boarding": "0"
  },
  {
    "stop_id": "LTFRB_1078",
    "stop_code": "",
    "stop_name": "Veterans Memorial Medical Centre, North Avenue, Quezon City",
    "stop_desc": "",
    "stop_lat": "14.6537",
    "stop_lon": "121.039",
    "zone_id": "",
    "stop_url": "",
    "location_type": "0",
    "parent_station": "",
    "wheelchair_boarding": "0"
  },
  {
    "stop_id": "LTFRB_1079",
    "stop_code": "",
    "stop_name": "Veterans Memorial Medical Centre, North Avenue, Quezon City",
    "stop_desc": "",
    "stop_lat": "14.6531",
    "stop_lon": "121.041",
    "zone_id": "",
    "stop_url": "",
    "location_type": "0",
    "parent_station": "",
    "wheelchair_boarding": "0"
  },
  {
    "stop_id": "LTFRB_1080",
    "stop_code": "",
    "stop_name": "Philippine Sugar Authority, North Avenue, Quezon City",
    "stop_desc": "",
    "stop_lat": "14.6526",
    "stop_lon": "121.044",
    "zone_id": "",
    "stop_url": "",
    "location_type": "0",
    "parent_station": "",
    "wheelchair_boarding": "0"
  },
  {
    "stop_id": "LTFRB_1081",
    "stop_code": "",
    "stop_name": "North Avenue, Quezon City",
    "stop_desc": "",
    "stop_lat": "14.6522",
    "stop_lon": "121.046",
    "zone_id": "",
    "stop_url": "",
    "location_type": "0",
    "parent_station": "",
    "wheelchair_boarding": "0"
  },
  {
    "stop_id": "LTFRB_1082",
    "stop_code": "",
    "stop_name": "Amianan Motors Office, Road 1, Quezon City",
    "stop_desc": "",
    "stop_lat": "14.6608",
    "stop_lon": "121.038",
    "zone_id": "",
    "stop_url": "",
    "location_type": "0",
    "parent_station": "",
    "wheelchair_boarding": "0"
  },
  {
    "stop_id": "LTFRB_1083",
    "stop_code": "",
    "stop_name": "Road 1 / A27 Intersection Quezon City",
    "stop_desc": "",
    "stop_lat": "14.6605",
    "stop_lon": "121.039",
    "zone_id": "",
    "stop_url": "",
    "location_type": "0",
    "parent_station": "",
    "wheelchair_boarding": "0"
  },
  {
    "stop_id": "LTFRB_1084",
    "stop_code": "",
    "stop_name": "Road 1 / Road 9 Intersection Quezon City",
    "stop_desc": "",
    "stop_lat": "14.6601",
    "stop_lon": "121.041",
    "zone_id": "",
    "stop_url": "",
    "location_type": "0",
    "parent_station": "",
    "wheelchair_boarding": "0"
  },
  {
    "stop_id": "LTFRB_1085",
    "stop_code": "",
    "stop_name": "Road 1 / A8A Intersection Quezon City",
    "stop_desc": "",
    "stop_lat": "14.6597",
    "stop_lon": "121.043",
    "zone_id": "",
    "stop_url": "",
    "location_type": "0",
    "parent_station": "",
    "wheelchair_boarding": "0"
  },
  {
    "stop_id": "LTFRB_1086",
    "stop_code": "",
    "stop_name": "Road 3 / A 16 Intersection Quezon City",
    "stop_desc": "",
    "stop_lat": "14.6633",
    "stop_lon": "121.043",
    "zone_id": "",
    "stop_url": "",
    "location_type": "0",
    "parent_station": "",
    "wheelchair_boarding": "0"
  },
  {
    "stop_id": "LTFRB_1087",
    "stop_code": "",
    "stop_name": "Road 3, Quezon City",
    "stop_desc": "",
    "stop_lat": "14.6643",
    "stop_lon": "121.042",
    "zone_id": "",
    "stop_url": "",
    "location_type": "0",
    "parent_station": "",
    "wheelchair_boarding": "0"
  },
  {
    "stop_id": "LTFRB_1088",
    "stop_code": "",
    "stop_name": "Road 3, Quezon City",
    "stop_desc": "",
    "stop_lat": "14.6648",
    "stop_lon": "121.041",
    "zone_id": "",
    "stop_url": "",
    "location_type": "0",
    "parent_station": "",
    "wheelchair_boarding": "0"
  },
  {
    "stop_id": "LTFRB_1089",
    "stop_code": "",
    "stop_name": "Road 3, Quezon City",
    "stop_desc": "",
    "stop_lat": "14.6646",
    "stop_lon": "121.04",
    "zone_id": "",
    "stop_url": "",
    "location_type": "0",
    "parent_station": "",
    "wheelchair_boarding": "0"
  },
  {
    "stop_id": "LTFRB_109",
    "stop_code": "",
    "stop_name": "Banco De Oro, Rizal Avenue, Caloocan City",
    "stop_desc": "",
    "stop_lat": "14.6412",
    "stop_lon": "120.984",
    "zone_id": "",
    "stop_url": "",
    "location_type": "0",
    "parent_station": "",
    "wheelchair_boarding": "0"
  },
  {
    "stop_id": "LTFRB_1090",
    "stop_code": "",
    "stop_name": "Road 3 / Road 5 Intersection, Quezon City",
    "stop_desc": "",
    "stop_lat": "14.6644",
    "stop_lon": "121.038",
    "zone_id": "",
    "stop_url": "",
    "location_type": "0",
    "parent_station": "",
    "wheelchair_boarding": "0"
  },
  {
    "stop_id": "LTFRB_1091",
    "stop_code": "",
    "stop_name": "Emensto Rondon High School, Road 3, Quezon City",
    "stop_desc": "",
    "stop_lat": "14.6641",
    "stop_lon": "121.037",
    "zone_id": "",
    "stop_url": "",
    "location_type": "0",
    "parent_station": "",
    "wheelchair_boarding": "0"
  },
  {
    "stop_id": "LTFRB_1092",
    "stop_code": "",
    "stop_name": "Congressional Avenue, Quezon City",
    "stop_desc": "",
    "stop_lat": "14.6691",
    "stop_lon": "121.035",
    "zone_id": "",
    "stop_url": "",
    "location_type": "0",
    "parent_station": "",
    "wheelchair_boarding": "0"
  },
  {
    "stop_id": "LTFRB_1093",
    "stop_code": "",
    "stop_name": "Congressional Avenue / Jupiter Intersection, Quezon City",
    "stop_desc": "",
    "stop_lat": "14.6705",
    "stop_lon": "121.037",
    "zone_id": "",
    "stop_url": "",
    "location_type": "0",
    "parent_station": "",
    "wheelchair_boarding": "0"
  },
  {
    "stop_id": "LTFRB_1094",
    "stop_code": "",
    "stop_name": "Cherry Foodarama, Congressional Avenue, Quezon City",
    "stop_desc": "",
    "stop_lat": "14.6711",
    "stop_lon": "121.039",
    "zone_id": "",
    "stop_url": "",
    "location_type": "0",
    "parent_station": "",
    "wheelchair_boarding": "0"
  },
  {
    "stop_id": "LTFRB_1095",
    "stop_code": "",
    "stop_name": "Starbucks, Congressional Avenue, Quezon City",
    "stop_desc": "",
    "stop_lat": "14.6715",
    "stop_lon": "121.041",
    "zone_id": "",
    "stop_url": "",
    "location_type": "0",
    "parent_station": "",
    "wheelchair_boarding": "0"
  },
  {
    "stop_id": "LTFRB_1096",
    "stop_code": "",
    "stop_name": "Life Value Clinic, Congressional Avenue, Quezon City",
    "stop_desc": "",
    "stop_lat": "14.6768",
    "stop_lon": "121.034",
    "zone_id": "",
    "stop_url": "",
    "location_type": "0",
    "parent_station": "",
    "wheelchair_boarding": "0"
  },
  {
    "stop_id": "LTFRB_1097",
    "stop_code": "",
    "stop_name": "Congressional Avenue / Banlat Road Intersection, Quezon City",
    "stop_desc": "",
    "stop_lat": "14.6768",
    "stop_lon": "121.035",
    "zone_id": "",
    "stop_url": "",
    "location_type": "0",
    "parent_station": "",
    "wheelchair_boarding": "0"
  },
  {
    "stop_id": "LTFRB_1098",
    "stop_code": "",
    "stop_name": "Congressional Avenue / Dona Sotera Intersection, Quezon City",
    "stop_desc": "",
    "stop_lat": "14.6765",
    "stop_lon": "121.037",
    "zone_id": "",
    "stop_url": "",
    "location_type": "0",
    "parent_station": "",
    "wheelchair_boarding": "0"
  },
  {
    "stop_id": "LTFRB_1099",
    "stop_code": "",
    "stop_name": "Congressional Avenue, Quezon City",
    "stop_desc": "",
    "stop_lat": "14.6769",
    "stop_lon": "121.04",
    "zone_id": "",
    "stop_url": "",
    "location_type": "0",
    "parent_station": "",
    "wheelchair_boarding": "0"
  },
  {
    "stop_id": "LTFRB_11",
    "stop_code": "",
    "stop_name": "Our Lady Manaoag College/ ELCO Lumber Corp., MacArthur Highway, Balagtas",
    "stop_desc": "",
    "stop_lat": "14.8116",
    "stop_lon": "120.914",
    "zone_id": "",
    "stop_url": "",
    "location_type": "0",
    "parent_station": "",
    "wheelchair_boarding": "0"
  },
  {
    "stop_id": "LTFRB_110",
    "stop_code": "",
    "stop_name": "Baliwag Transit Bus Station, Rizal Avenue, Caloocan City",
    "stop_desc": "",
    "stop_lat": "14.64",
    "stop_lon": "120.984",
    "zone_id": "",
    "stop_url": "",
    "location_type": "0",
    "parent_station": "",
    "wheelchair_boarding": "0"
  },
  {
    "stop_id": "LTFRB_1100",
    "stop_code": "",
    "stop_name": "Congressional Avenue, Quezon City",
    "stop_desc": "",
    "stop_lat": "14.6766",
    "stop_lon": "121.042",
    "zone_id": "",
    "stop_url": "",
    "location_type": "0",
    "parent_station": "",
    "wheelchair_boarding": "0"
  },
  {
    "stop_id": "LTFRB_1101",
    "stop_code": "",
    "stop_name": "Congressional Avenue / Golden Intersection, Quezon City",
    "stop_desc": "",
    "stop_lat": "14.6763",
    "stop_lon": "121.043",
    "zone_id": "",
    "stop_url": "",
    "location_type": "0",
    "parent_station": "",
    "wheelchair_boarding": "0"
  },
  {
    "stop_id": "LTFRB_1102",
    "stop_code": "",
    "stop_name": "Congressional Avenue / San Miguel Intersection, Quezon City",
    "stop_desc": "",
    "stop_lat": "14.6762",
    "stop_lon": "121.046",
    "zone_id": "",
    "stop_url": "",
    "location_type": "0",
    "parent_station": "",
    "wheelchair_boarding": "0"
  },
  {
    "stop_id": "LTFRB_1103",
    "stop_code": "",
    "stop_name": "Himlayan Road / Drakar Intersection, Quezon City",
    "stop_desc": "",
    "stop_lat": "14.6772",
    "stop_lon": "121.046",
    "zone_id": "",
    "stop_url": "",
    "location_type": "0",
    "parent_station": "",
    "wheelchair_boarding": "0"
  },
  {
    "stop_id": "LTFRB_1104",
    "stop_code": "",
    "stop_name": "Himlayan Road / Cartier Intersection, Quezon City",
    "stop_desc": "",
    "stop_lat": "14.6789",
    "stop_lon": "121.046",
    "zone_id": "",
    "stop_url": "",
    "location_type": "0",
    "parent_station": "",
    "wheelchair_boarding": "0"
  },
  {
    "stop_id": "LTFRB_1105",
    "stop_code": "",
    "stop_name": "Himlayan Road / Banlat Road Intersection, Quezon City",
    "stop_desc": "",
    "stop_lat": "14.6806",
    "stop_lon": "121.047",
    "zone_id": "",
    "stop_url": "",
    "location_type": "0",
    "parent_station": "",
    "wheelchair_boarding": "0"
  },
  {
    "stop_id": "LTFRB_1106",
    "stop_code": "",
    "stop_name": "Banlat Road / Ambuklao Intersection, Quezon City",
    "stop_desc": "",
    "stop_lat": "14.6827",
    "stop_lon": "121.046",
    "zone_id": "",
    "stop_url": "",
    "location_type": "0",
    "parent_station": "",
    "wheelchair_boarding": "0"
  },
  {
    "stop_id": "LTFRB_1107",
    "stop_code": "",
    "stop_name": "Ambuklao, Quezon City",
    "stop_desc": "",
    "stop_lat": "14.6839",
    "stop_lon": "121.047",
    "zone_id": "",
    "stop_url": "",
    "location_type": "0",
    "parent_station": "",
    "wheelchair_boarding": "0"
  },
  {
    "stop_id": "LTFRB_1108",
    "stop_code": "",
    "stop_name": "Ambuklao, Quezon City",
    "stop_desc": "",
    "stop_lat": "14.685",
    "stop_lon": "121.048",
    "zone_id": "",
    "stop_url": "",
    "location_type": "0",
    "parent_station": "",
    "wheelchair_boarding": "0"
  },
  {
    "stop_id": "LTFRB_1109",
    "stop_code": "",
    "stop_name": "Ambuklao / Loboc Intersection, Quezon City",
    "stop_desc": "",
    "stop_lat": "14.6861",
    "stop_lon": "121.048",
    "zone_id": "",
    "stop_url": "",
    "location_type": "0",
    "parent_station": "",
    "wheelchair_boarding": "0"
  },
  {
    "stop_id": "LTFRB_111",
    "stop_code": "",
    "stop_name": "Rizal Avenue / Road 1 Intersection, Caloocan City",
    "stop_desc": "",
    "stop_lat": "14.6374",
    "stop_lon": "120.983",
    "zone_id": "",
    "stop_url": "",
    "location_type": "0",
    "parent_station": "",
    "wheelchair_boarding": "0"
  },
  {
    "stop_id": "LTFRB_1110",
    "stop_code": "",
    "stop_name": "Binga, Quezon City",
    "stop_desc": "",
    "stop_lat": "14.6863",
    "stop_lon": "121.05",
    "zone_id": "",
    "stop_url": "",
    "location_type": "0",
    "parent_station": "",
    "wheelchair_boarding": "0"
  },
  {
    "stop_id": "LTFRB_1111",
    "stop_code": "",
    "stop_name": "Kalayaan, Quezon City",
    "stop_desc": "",
    "stop_lat": "14.6874",
    "stop_lon": "121.051",
    "zone_id": "",
    "stop_url": "",
    "location_type": "0",
    "parent_station": "",
    "wheelchair_boarding": "0"
  },
  {
    "stop_id": "LTFRB_1112",
    "stop_code": "",
    "stop_name": "Kalayaan / Jacinto Roque, Quezon City",
    "stop_desc": "",
    "stop_lat": "14.6888",
    "stop_lon": "121.051",
    "zone_id": "",
    "stop_url": "",
    "location_type": "0",
    "parent_station": "",
    "wheelchair_boarding": "0"
  },
  {
    "stop_id": "LTFRB_1113",
    "stop_code": "",
    "stop_name": "Kalayaan, Quezon City",
    "stop_desc": "",
    "stop_lat": "14.6903",
    "stop_lon": "121.051",
    "zone_id": "",
    "stop_url": "",
    "location_type": "0",
    "parent_station": "",
    "wheelchair_boarding": "0"
  },
  {
    "stop_id": "LTFRB_1114",
    "stop_code": "",
    "stop_name": "NIA Chapel, Chico, Quezon City",
    "stop_desc": "",
    "stop_lat": "14.6916",
    "stop_lon": "121.049",
    "zone_id": "",
    "stop_url": "",
    "location_type": "0",
    "parent_station": "",
    "wheelchair_boarding": "0"
  },
  {
    "stop_id": "LTFRB_1115",
    "stop_code": "",
    "stop_name": "Sauyo High School Extension, Pantabangan, Quezon City",
    "stop_desc": "",
    "stop_lat": "14.691",
    "stop_lon": "121.048",
    "zone_id": "",
    "stop_url": "",
    "location_type": "0",
    "parent_station": "",
    "wheelchair_boarding": "0"
  },
  {
    "stop_id": "LTFRB_1116",
    "stop_code": "",
    "stop_name": "North Luzon Expressway, Valenzuela City",
    "stop_desc": "",
    "stop_lat": "14.7069",
    "stop_lon": "120.994",
    "zone_id": "",
    "stop_url": "",
    "location_type": "0",
    "parent_station": "",
    "wheelchair_boarding": "0"
  },
  {
    "stop_id": "LTFRB_1117",
    "stop_code": "",
    "stop_name": "North Luzon Expressway / Santiago Street Intersection, Valenzuela City",
    "stop_desc": "",
    "stop_lat": "14.7049",
    "stop_lon": "120.995",
    "zone_id": "",
    "stop_url": "",
    "location_type": "0",
    "parent_station": "",
    "wheelchair_boarding": "0"
  },
  {
    "stop_id": "LTFRB_1118",
    "stop_code": "",
    "stop_name": "North Luzon Expressway, Valenzuela City",
    "stop_desc": "",
    "stop_lat": "14.7033",
    "stop_lon": "120.996",
    "zone_id": "",
    "stop_url": "",
    "location_type": "0",
    "parent_station": "",
    "wheelchair_boarding": "0"
  },
  {
    "stop_id": "LTFRB_1119",
    "stop_code": "",
    "stop_name": "North Luzon Expressway, Valenzuela City",
    "stop_desc": "",
    "stop_lat": "14.7013",
    "stop_lon": "120.997",
    "zone_id": "",
    "stop_url": "",
    "location_type": "0",
    "parent_station": "",
    "wheelchair_boarding": "0"
  },
  {
    "stop_id": "LTFRB_112",
    "stop_code": "",
    "stop_name": "LRT Papa Station, Rizal  Avenue, Caloocan City",
    "stop_desc": "",
    "stop_lat": "14.6362",
    "stop_lon": "120.982",
    "zone_id": "",
    "stop_url": "",
    "location_type": "0",
    "parent_station": "",
    "wheelchair_boarding": "0"
  },
  {
    "stop_id": "LTFRB_1120",
    "stop_code": "",
    "stop_name": "North Luzon Expressway, Valenzuela City",
    "stop_desc": "",
    "stop_lat": "14.6995",
    "stop_lon": "120.998",
    "zone_id": "",
    "stop_url": "",
    "location_type": "0",
    "parent_station": "",
    "wheelchair_boarding": "0"
  },
  {
    "stop_id": "LTFRB_1121",
    "stop_code": "",
    "stop_name": "North Luzon Expressway, Valenzuela City",
    "stop_desc": "",
    "stop_lat": "14.6975",
    "stop_lon": "120.999",
    "zone_id": "",
    "stop_url": "",
    "location_type": "0",
    "parent_station": "",
    "wheelchair_boarding": "0"
  },
  {
    "stop_id": "LTFRB_1122",
    "stop_code": "",
    "stop_name": "North Luzon Expressway, Valenzuela City",
    "stop_desc": "",
    "stop_lat": "14.6954",
    "stop_lon": "121",
    "zone_id": "",
    "stop_url": "",
    "location_type": "0",
    "parent_station": "",
    "wheelchair_boarding": "0"
  },
  {
    "stop_id": "LTFRB_1123",
    "stop_code": "",
    "stop_name": "North Luzon Expressway / Mindanao Avenue, Valenzuela City",
    "stop_desc": "",
    "stop_lat": "14.6932",
    "stop_lon": "121",
    "zone_id": "",
    "stop_url": "",
    "location_type": "0",
    "parent_station": "",
    "wheelchair_boarding": "0"
  },
  {
    "stop_id": "LTFRB_1124",
    "stop_code": "",
    "stop_name": "North Luzon Expressway, Valenzuela City",
    "stop_desc": "",
    "stop_lat": "14.6911",
    "stop_lon": "121.001",
    "zone_id": "",
    "stop_url": "",
    "location_type": "0",
    "parent_station": "",
    "wheelchair_boarding": "0"
  },
  {
    "stop_id": "LTFRB_1125",
    "stop_code": "",
    "stop_name": "North Luzon Expressway, Valenzuela City",
    "stop_desc": "",
    "stop_lat": "14.6891",
    "stop_lon": "121.001",
    "zone_id": "",
    "stop_url": "",
    "location_type": "0",
    "parent_station": "",
    "wheelchair_boarding": "0"
  },
  {
    "stop_id": "LTFRB_1126",
    "stop_code": "",
    "stop_name": "North Luzon Expressway, Valenzuela City",
    "stop_desc": "",
    "stop_lat": "14.6871",
    "stop_lon": "121.001",
    "zone_id": "",
    "stop_url": "",
    "location_type": "0",
    "parent_station": "",
    "wheelchair_boarding": "0"
  },
  {
    "stop_id": "LTFRB_1127",
    "stop_code": "",
    "stop_name": "North Luzon Expressway, Valenzuela City",
    "stop_desc": "",
    "stop_lat": "14.6853",
    "stop_lon": "121.001",
    "zone_id": "",
    "stop_url": "",
    "location_type": "0",
    "parent_station": "",
    "wheelchair_boarding": "0"
  },
  {
    "stop_id": "LTFRB_1128",
    "stop_code": "",
    "stop_name": "North Luzon Expressway, Valenzuela City",
    "stop_desc": "",
    "stop_lat": "14.6839",
    "stop_lon": "121.001",
    "zone_id": "",
    "stop_url": "",
    "location_type": "0",
    "parent_station": "",
    "wheelchair_boarding": "0"
  },
  {
    "stop_id": "LTFRB_1129",
    "stop_code": "",
    "stop_name": "North Luzon Expressway, Valenzuela City",
    "stop_desc": "",
    "stop_lat": "14.682",
    "stop_lon": "121.001",
    "zone_id": "",
    "stop_url": "",
    "location_type": "0",
    "parent_station": "",
    "wheelchair_boarding": "0"
  },
  {
    "stop_id": "LTFRB_113",
    "stop_code": "",
    "stop_name": "Rizal Avenue / Jose Abad Santos Avenue Interchange, Caloocan City",
    "stop_desc": "",
    "stop_lat": "14.632",
    "stop_lon": "120.981",
    "zone_id": "",
    "stop_url": "",
    "location_type": "0",
    "parent_station": "",
    "wheelchair_boarding": "0"
  },
  {
    "stop_id": "LTFRB_1130",
    "stop_code": "",
    "stop_name": "North Luzon Expressway, Valenzuela City",
    "stop_desc": "",
    "stop_lat": "14.6801",
    "stop_lon": "121.001",
    "zone_id": "",
    "stop_url": "",
    "location_type": "0",
    "parent_station": "",
    "wheelchair_boarding": "0"
  },
  {
    "stop_id": "LTFRB_1131",
    "stop_code": "",
    "stop_name": "North Luzon Expressway near NLEX Complex, Caloocan City",
    "stop_desc": "",
    "stop_lat": "14.6779",
    "stop_lon": "121",
    "zone_id": "",
    "stop_url": "",
    "location_type": "0",
    "parent_station": "",
    "wheelchair_boarding": "0"
  },
  {
    "stop_id": "LTFRB_1132",
    "stop_code": "",
    "stop_name": "North Luzon Expressway, Caloocan City",
    "stop_desc": "",
    "stop_lat": "14.6758",
    "stop_lon": "121.001",
    "zone_id": "",
    "stop_url": "",
    "location_type": "0",
    "parent_station": "",
    "wheelchair_boarding": "0"
  },
  {
    "stop_id": "LTFRB_1133",
    "stop_code": "",
    "stop_name": "North Luzon Expressway near Libis Baesa Exit, Caloocan City",
    "stop_desc": "",
    "stop_lat": "14.6737",
    "stop_lon": "121.001",
    "zone_id": "",
    "stop_url": "",
    "location_type": "0",
    "parent_station": "",
    "wheelchair_boarding": "0"
  },
  {
    "stop_id": "LTFRB_1134",
    "stop_code": "",
    "stop_name": "North Luzon Expressway, Caloocan City",
    "stop_desc": "",
    "stop_lat": "14.6718",
    "stop_lon": "121.001",
    "zone_id": "",
    "stop_url": "",
    "location_type": "0",
    "parent_station": "",
    "wheelchair_boarding": "0"
  },
  {
    "stop_id": "LTFRB_1135",
    "stop_code": "",
    "stop_name": "North Luzon Expressway near Eternal Gardens Memorial Park, Caloocan City",
    "stop_desc": "",
    "stop_lat": "14.67",
    "stop_lon": "121",
    "zone_id": "",
    "stop_url": "",
    "location_type": "0",
    "parent_station": "",
    "wheelchair_boarding": "0"
  },
  {
    "stop_id": "LTFRB_1136",
    "stop_code": "",
    "stop_name": "North Luzon Expressway, Caloocan City",
    "stop_desc": "",
    "stop_lat": "14.6682",
    "stop_lon": "121",
    "zone_id": "",
    "stop_url": "",
    "location_type": "0",
    "parent_station": "",
    "wheelchair_boarding": "0"
  },
  {
    "stop_id": "LTFRB_1137",
    "stop_code": "",
    "stop_name": "North Luzon Expressway, Caloocan City",
    "stop_desc": "",
    "stop_lat": "14.6663",
    "stop_lon": "121",
    "zone_id": "",
    "stop_url": "",
    "location_type": "0",
    "parent_station": "",
    "wheelchair_boarding": "0"
  },
  {
    "stop_id": "LTFRB_1138",
    "stop_code": "",
    "stop_name": "North Luzon Expressway, Caloocan City",
    "stop_desc": "",
    "stop_lat": "14.6641",
    "stop_lon": "121",
    "zone_id": "",
    "stop_url": "",
    "location_type": "0",
    "parent_station": "",
    "wheelchair_boarding": "0"
  },
  {
    "stop_id": "LTFRB_1139",
    "stop_code": "",
    "stop_name": "North Luzon Expressway near Bonifacio Memorial Elementary School, Caloocan City",
    "stop_desc": "",
    "stop_lat": "14.6591",
    "stop_lon": "121",
    "zone_id": "",
    "stop_url": "",
    "location_type": "0",
    "parent_station": "",
    "wheelchair_boarding": "0"
  },
  {
    "stop_id": "LTFRB_114",
    "stop_code": "",
    "stop_name": "Governor Fortunato Halili Avenue, Bocaue",
    "stop_desc": "",
    "stop_lat": "14.7994",
    "stop_lon": "120.931",
    "zone_id": "",
    "stop_url": "",
    "location_type": "0",
    "parent_station": "",
    "wheelchair_boarding": "0"
  },
  {
    "stop_id": "LTFRB_1140",
    "stop_code": "",
    "stop_name": "North Luzon Expressway / Epifanio de los Santos Avenue Intersection, Caloocan City",
    "stop_desc": "",
    "stop_lat": "14.6573",
    "stop_lon": "121",
    "zone_id": "",
    "stop_url": "",
    "location_type": "0",
    "parent_station": "",
    "wheelchair_boarding": "0"
  },
  {
    "stop_id": "LTFRB_1141",
    "stop_code": "",
    "stop_name": "Malabon / Milagrosa Intersection, Caloocan City",
    "stop_desc": "",
    "stop_lat": "14.6687",
    "stop_lon": "120.997",
    "zone_id": "",
    "stop_url": "",
    "location_type": "0",
    "parent_station": "",
    "wheelchair_boarding": "0"
  },
  {
    "stop_id": "LTFRB_1142",
    "stop_code": "",
    "stop_name": "Malabon / Makaneneng Intersection, Caloocan City",
    "stop_desc": "",
    "stop_lat": "14.6692",
    "stop_lon": "120.998",
    "zone_id": "",
    "stop_url": "",
    "location_type": "0",
    "parent_station": "",
    "wheelchair_boarding": "0"
  },
  {
    "stop_id": "LTFRB_1143",
    "stop_code": "",
    "stop_name": "Malolos Avenue / Makaneneng Intersection, Caloocan City",
    "stop_desc": "",
    "stop_lat": "14.6672",
    "stop_lon": "121",
    "zone_id": "",
    "stop_url": "",
    "location_type": "0",
    "parent_station": "",
    "wheelchair_boarding": "0"
  },
  {
    "stop_id": "LTFRB_1144",
    "stop_code": "",
    "stop_name": "Malolos Avenue / Milagrosa Intersection, Caloocan City",
    "stop_desc": "",
    "stop_lat": "14.6662",
    "stop_lon": "120.999",
    "zone_id": "",
    "stop_url": "",
    "location_type": "0",
    "parent_station": "",
    "wheelchair_boarding": "0"
  },
  {
    "stop_id": "LTFRB_1145",
    "stop_code": "",
    "stop_name": "Miracle / Milagrosa Intersection, Caloocan City",
    "stop_desc": "",
    "stop_lat": "14.6674",
    "stop_lon": "120.997",
    "zone_id": "",
    "stop_url": "",
    "location_type": "0",
    "parent_station": "",
    "wheelchair_boarding": "0"
  },
  {
    "stop_id": "LTFRB_1146",
    "stop_code": "",
    "stop_name": "Malolos Avenue, Caloocan City",
    "stop_desc": "",
    "stop_lat": "14.6649",
    "stop_lon": "120.997",
    "zone_id": "",
    "stop_url": "",
    "location_type": "0",
    "parent_station": "",
    "wheelchair_boarding": "0"
  },
  {
    "stop_id": "LTFRB_1147",
    "stop_code": "",
    "stop_name": "Malolos Avenue / General Tirona Intersection, Caloocan City",
    "stop_desc": "",
    "stop_lat": "14.6639",
    "stop_lon": "120.996",
    "zone_id": "",
    "stop_url": "",
    "location_type": "0",
    "parent_station": "",
    "wheelchair_boarding": "0"
  },
  {
    "stop_id": "LTFRB_1148",
    "stop_code": "",
    "stop_name": "General Tirona Intersection, Caloocan City",
    "stop_desc": "",
    "stop_lat": "14.662",
    "stop_lon": "120.997",
    "zone_id": "",
    "stop_url": "",
    "location_type": "0",
    "parent_station": "",
    "wheelchair_boarding": "0"
  },
  {
    "stop_id": "LTFRB_1149",
    "stop_code": "",
    "stop_name": "Gregoria de Jesus, Caloocan City",
    "stop_desc": "",
    "stop_lat": "14.6597",
    "stop_lon": "120.998",
    "zone_id": "",
    "stop_url": "",
    "location_type": "0",
    "parent_station": "",
    "wheelchair_boarding": "0"
  },
  {
    "stop_id": "LTFRB_115",
    "stop_code": "",
    "stop_name": "Governor Fortunato Halili Avenue, Bocaue",
    "stop_desc": "",
    "stop_lat": "14.8017",
    "stop_lon": "120.933",
    "zone_id": "",
    "stop_url": "",
    "location_type": "0",
    "parent_station": "",
    "wheelchair_boarding": "0"
  },
  {
    "stop_id": "LTFRB_1150",
    "stop_code": "",
    "stop_name": "General Tirona Intersection, Caloocan City",
    "stop_desc": "",
    "stop_lat": "14.6583",
    "stop_lon": "120.997",
    "zone_id": "",
    "stop_url": "",
    "location_type": "0",
    "parent_station": "",
    "wheelchair_boarding": "0"
  },
  {
    "stop_id": "LTFRB_1151",
    "stop_code": "",
    "stop_name": "Epifanio de los Santos Avenue, Caloocan City",
    "stop_desc": "",
    "stop_lat": "14.6573",
    "stop_lon": "120.998",
    "zone_id": "",
    "stop_url": "",
    "location_type": "0",
    "parent_station": "",
    "wheelchair_boarding": "0"
  },
  {
    "stop_id": "LTFRB_1152",
    "stop_code": "",
    "stop_name": "Epifanio de los Santos Avenue / General Evangelista , Caloocan City",
    "stop_desc": "",
    "stop_lat": "14.6573",
    "stop_lon": "120.996",
    "zone_id": "",
    "stop_url": "",
    "location_type": "0",
    "parent_station": "",
    "wheelchair_boarding": "0"
  },
  {
    "stop_id": "LTFRB_1153",
    "stop_code": "",
    "stop_name": "Epifanio de los Santos Avenue / Gen Malvar Intersection , Caloocan City",
    "stop_desc": "",
    "stop_lat": "14.6573",
    "stop_lon": "120.993",
    "zone_id": "",
    "stop_url": "",
    "location_type": "0",
    "parent_station": "",
    "wheelchair_boarding": "0"
  },
  {
    "stop_id": "LTFRB_1154",
    "stop_code": "",
    "stop_name": "Epifanio de los Santos Avenue / 8th Street Intersection , Caloocan City",
    "stop_desc": "",
    "stop_lat": "14.6572",
    "stop_lon": "120.99",
    "zone_id": "",
    "stop_url": "",
    "location_type": "0",
    "parent_station": "",
    "wheelchair_boarding": "0"
  },
  {
    "stop_id": "LTFRB_1155",
    "stop_code": "",
    "stop_name": "Epifanio de los Santos Avenue / 5th Street Intersection , Caloocan City",
    "stop_desc": "",
    "stop_lat": "14.6573",
    "stop_lon": "120.988",
    "zone_id": "",
    "stop_url": "",
    "location_type": "0",
    "parent_station": "",
    "wheelchair_boarding": "0"
  },
  {
    "stop_id": "LTFRB_1156",
    "stop_code": "",
    "stop_name": "Epifanio de los Santos Avenue / General Rosendo Simon Intersection , Caloocan City",
    "stop_desc": "",
    "stop_lat": "14.6572",
    "stop_lon": "120.986",
    "zone_id": "",
    "stop_url": "",
    "location_type": "0",
    "parent_station": "",
    "wheelchair_boarding": "0"
  },
  {
    "stop_id": "LTFRB_1157",
    "stop_code": "",
    "stop_name": "L Bustamante / Benin Intersection, Caloocan City",
    "stop_desc": "",
    "stop_lat": "14.656",
    "stop_lon": "120.985",
    "zone_id": "",
    "stop_url": "",
    "location_type": "0",
    "parent_station": "",
    "wheelchair_boarding": "0"
  },
  {
    "stop_id": "LTFRB_1158",
    "stop_code": "",
    "stop_name": "2nd Street / 12th Avenue, Caloocan City",
    "stop_desc": "",
    "stop_lat": "14.6544",
    "stop_lon": "120.986",
    "zone_id": "",
    "stop_url": "",
    "location_type": "0",
    "parent_station": "",
    "wheelchair_boarding": "0"
  },
  {
    "stop_id": "LTFRB_1159",
    "stop_code": "",
    "stop_name": "5th Street / 12th Avenue Intersection, Caloocan City",
    "stop_desc": "",
    "stop_lat": "14.6542",
    "stop_lon": "120.988",
    "zone_id": "",
    "stop_url": "",
    "location_type": "0",
    "parent_station": "",
    "wheelchair_boarding": "0"
  },
  {
    "stop_id": "LTFRB_116",
    "stop_code": "",
    "stop_name": "Academia de Sta. Cruz,Governor Fortunato Halili Avenue, Bocaue",
    "stop_desc": "",
    "stop_lat": "14.805",
    "stop_lon": "120.935",
    "zone_id": "",
    "stop_url": "",
    "location_type": "0",
    "parent_station": "",
    "wheelchair_boarding": "0"
  },
  {
    "stop_id": "LTFRB_1160",
    "stop_code": "",
    "stop_name": "5th Street / Macbagdal Intersection, Caloocan City",
    "stop_desc": "",
    "stop_lat": "14.6557",
    "stop_lon": "120.988",
    "zone_id": "",
    "stop_url": "",
    "location_type": "0",
    "parent_station": "",
    "wheelchair_boarding": "0"
  },
  {
    "stop_id": "LTFRB_1161",
    "stop_code": "",
    "stop_name": "8th Avenue / Macbagdal Intersection, Caloocan City",
    "stop_desc": "",
    "stop_lat": "14.6557",
    "stop_lon": "120.99",
    "zone_id": "",
    "stop_url": "",
    "location_type": "0",
    "parent_station": "",
    "wheelchair_boarding": "0"
  },
  {
    "stop_id": "LTFRB_1162",
    "stop_code": "",
    "stop_name": "12th Street / 8th Avenue, Caloocan City",
    "stop_desc": "",
    "stop_lat": "14.6542",
    "stop_lon": "120.99",
    "zone_id": "",
    "stop_url": "",
    "location_type": "0",
    "parent_station": "",
    "wheelchair_boarding": "0"
  },
  {
    "stop_id": "LTFRB_1163",
    "stop_code": "",
    "stop_name": "5th Street / 10th Avenue, Caloocan City",
    "stop_desc": "",
    "stop_lat": "14.6514",
    "stop_lon": "120.988",
    "zone_id": "",
    "stop_url": "",
    "location_type": "0",
    "parent_station": "",
    "wheelchair_boarding": "0"
  },
  {
    "stop_id": "LTFRB_1164",
    "stop_code": "",
    "stop_name": "2nd Street / 10th Avenue, Caloocan City",
    "stop_desc": "",
    "stop_lat": "14.6515",
    "stop_lon": "120.986",
    "zone_id": "",
    "stop_url": "",
    "location_type": "0",
    "parent_station": "",
    "wheelchair_boarding": "0"
  },
  {
    "stop_id": "LTFRB_1165",
    "stop_code": "",
    "stop_name": "8th Street / 10th Avenue, Caloocan City",
    "stop_desc": "",
    "stop_lat": "14.6513",
    "stop_lon": "120.99",
    "zone_id": "",
    "stop_url": "",
    "location_type": "0",
    "parent_station": "",
    "wheelchair_boarding": "0"
  },
  {
    "stop_id": "LTFRB_1166",
    "stop_code": "",
    "stop_name": "11th Steet / 10th Avenue, Caloocan City",
    "stop_desc": "",
    "stop_lat": "14.6513",
    "stop_lon": "120.993",
    "zone_id": "",
    "stop_url": "",
    "location_type": "0",
    "parent_station": "",
    "wheelchair_boarding": "0"
  },
  {
    "stop_id": "LTFRB_1167",
    "stop_code": "",
    "stop_name": "Kamantigue / 10th Avenue, Caloocan City",
    "stop_desc": "",
    "stop_lat": "14.6512",
    "stop_lon": "120.995",
    "zone_id": "",
    "stop_url": "",
    "location_type": "0",
    "parent_station": "",
    "wheelchair_boarding": "0"
  },
  {
    "stop_id": "LTFRB_1168",
    "stop_code": "",
    "stop_name": "Kamantigue / 11th Avenue, Caloocan City",
    "stop_desc": "",
    "stop_lat": "14.6526",
    "stop_lon": "120.995",
    "zone_id": "",
    "stop_url": "",
    "location_type": "0",
    "parent_station": "",
    "wheelchair_boarding": "0"
  },
  {
    "stop_id": "LTFRB_1169",
    "stop_code": "",
    "stop_name": "Quirino Highway, Quezon City",
    "stop_desc": "",
    "stop_lat": "14.6625",
    "stop_lon": "121.001",
    "zone_id": "",
    "stop_url": "",
    "location_type": "0",
    "parent_station": "",
    "wheelchair_boarding": "0"
  },
  {
    "stop_id": "LTFRB_117",
    "stop_code": "",
    "stop_name": "Truo Elementary School, Governor Fortunato Halili Avenue, Bocaue",
    "stop_desc": "",
    "stop_lat": "14.8066",
    "stop_lon": "120.938",
    "zone_id": "",
    "stop_url": "",
    "location_type": "0",
    "parent_station": "",
    "wheelchair_boarding": "0"
  },
  {
    "stop_id": "LTFRB_1170",
    "stop_code": "",
    "stop_name": "Quirino Highway / S Gonzales Drive Intersection, Quezon City",
    "stop_desc": "",
    "stop_lat": "14.664",
    "stop_lon": "121.003",
    "zone_id": "",
    "stop_url": "",
    "location_type": "0",
    "parent_station": "",
    "wheelchair_boarding": "0"
  },
  {
    "stop_id": "LTFRB_1171",
    "stop_code": "",
    "stop_name": "Quirino Highway near Maximina Intersection, Quezon City",
    "stop_desc": "",
    "stop_lat": "14.6648",
    "stop_lon": "121.004",
    "zone_id": "",
    "stop_url": "",
    "location_type": "0",
    "parent_station": "",
    "wheelchair_boarding": "0"
  },
  {
    "stop_id": "LTFRB_1172",
    "stop_code": "",
    "stop_name": "Quirino Highway / Francisco Intersection, Quezon City",
    "stop_desc": "",
    "stop_lat": "14.6655",
    "stop_lon": "121.006",
    "zone_id": "",
    "stop_url": "",
    "location_type": "0",
    "parent_station": "",
    "wheelchair_boarding": "0"
  },
  {
    "stop_id": "LTFRB_1173",
    "stop_code": "",
    "stop_name": "Quirino Highway / 127 Interior Intersection, Quezon City",
    "stop_desc": "",
    "stop_lat": "14.6667",
    "stop_lon": "121.007",
    "zone_id": "",
    "stop_url": "",
    "location_type": "0",
    "parent_station": "",
    "wheelchair_boarding": "0"
  },
  {
    "stop_id": "LTFRB_1174",
    "stop_code": "",
    "stop_name": "Quirino Highway, Quezon City",
    "stop_desc": "",
    "stop_lat": "14.6683",
    "stop_lon": "121.009",
    "zone_id": "",
    "stop_url": "",
    "location_type": "0",
    "parent_station": "",
    "wheelchair_boarding": "0"
  },
  {
    "stop_id": "LTFRB_1175",
    "stop_code": "",
    "stop_name": "Pascual Memorial Elementary School, Quirino Highway, Quezon City",
    "stop_desc": "",
    "stop_lat": "14.6697",
    "stop_lon": "121.01",
    "zone_id": "",
    "stop_url": "",
    "location_type": "0",
    "parent_station": "",
    "wheelchair_boarding": "0"
  },
  {
    "stop_id": "LTFRB_1176",
    "stop_code": "",
    "stop_name": "Baesa Road, Quirino Highway, Quezon City",
    "stop_desc": "",
    "stop_lat": "14.6682",
    "stop_lon": "121.007",
    "zone_id": "",
    "stop_url": "",
    "location_type": "0",
    "parent_station": "",
    "wheelchair_boarding": "0"
  },
  {
    "stop_id": "LTFRB_1177",
    "stop_code": "",
    "stop_name": "Baesa Road / Faith Intersection, Quirino Highway, Quezon City",
    "stop_desc": "",
    "stop_lat": "14.6699",
    "stop_lon": "121.006",
    "zone_id": "",
    "stop_url": "",
    "location_type": "0",
    "parent_station": "",
    "wheelchair_boarding": "0"
  },
  {
    "stop_id": "LTFRB_1178",
    "stop_code": "",
    "stop_name": "Baesa Road, Quirino Highway, Quezon City",
    "stop_desc": "",
    "stop_lat": "14.6716",
    "stop_lon": "121.006",
    "zone_id": "",
    "stop_url": "",
    "location_type": "0",
    "parent_station": "",
    "wheelchair_boarding": "0"
  },
  {
    "stop_id": "LTFRB_1179",
    "stop_code": "",
    "stop_name": "Baesa Road, Quirino Highway, Quezon City",
    "stop_desc": "",
    "stop_lat": "14.6732",
    "stop_lon": "121.005",
    "zone_id": "",
    "stop_url": "",
    "location_type": "0",
    "parent_station": "",
    "wheelchair_boarding": "0"
  },
  {
    "stop_id": "LTFRB_118",
    "stop_code": "",
    "stop_name": "Truo FX Terminal, Governor Fortunato Halili Avenue, Bocaue",
    "stop_desc": "",
    "stop_lat": "14.8073",
    "stop_lon": "120.94",
    "zone_id": "",
    "stop_url": "",
    "location_type": "0",
    "parent_station": "",
    "wheelchair_boarding": "0"
  },
  {
    "stop_id": "LTFRB_1180",
    "stop_code": "",
    "stop_name": "Baesa Road, Quirino Highway, Quezon City",
    "stop_desc": "",
    "stop_lat": "14.6744",
    "stop_lon": "121.005",
    "zone_id": "",
    "stop_url": "",
    "location_type": "0",
    "parent_station": "",
    "wheelchair_boarding": "0"
  },
  {
    "stop_id": "LTFRB_1181",
    "stop_code": "",
    "stop_name": "Baesa Road / Reparo Road Intersection, Quirino Highway, Quezon City",
    "stop_desc": "",
    "stop_lat": "14.6756",
    "stop_lon": "121.004",
    "zone_id": "",
    "stop_url": "",
    "location_type": "0",
    "parent_station": "",
    "wheelchair_boarding": "0"
  },
  {
    "stop_id": "LTFRB_1182",
    "stop_code": "",
    "stop_name": "General Hospital, Baesa Road, Quirino Highway, Quezon City",
    "stop_desc": "",
    "stop_lat": "14.6769",
    "stop_lon": "121.005",
    "zone_id": "",
    "stop_url": "",
    "location_type": "0",
    "parent_station": "",
    "wheelchair_boarding": "0"
  },
  {
    "stop_id": "LTFRB_1183",
    "stop_code": "",
    "stop_name": "Baesa Educational Foundation, Baesa Road, Quirino Highway, Quezon City",
    "stop_desc": "",
    "stop_lat": "14.6777",
    "stop_lon": "121.006",
    "zone_id": "",
    "stop_url": "",
    "location_type": "0",
    "parent_station": "",
    "wheelchair_boarding": "0"
  },
  {
    "stop_id": "LTFRB_1184",
    "stop_code": "",
    "stop_name": "Baesa Road / Aquino Street Intersection, Quirino Highway, Quezon City",
    "stop_desc": "",
    "stop_lat": "14.6783",
    "stop_lon": "121.007",
    "zone_id": "",
    "stop_url": "",
    "location_type": "0",
    "parent_station": "",
    "wheelchair_boarding": "0"
  },
  {
    "stop_id": "LTFRB_1185",
    "stop_code": "",
    "stop_name": "Baesa Road / Julieta Street Intersection, Quirino Highway, Quezon City",
    "stop_desc": "",
    "stop_lat": "14.6789",
    "stop_lon": "121.007",
    "zone_id": "",
    "stop_url": "",
    "location_type": "0",
    "parent_station": "",
    "wheelchair_boarding": "0"
  },
  {
    "stop_id": "LTFRB_1186",
    "stop_code": "",
    "stop_name": "Baesa Road / Barnachea Compund Intersection, Quirino Highway, Quezon City",
    "stop_desc": "",
    "stop_lat": "14.6794",
    "stop_lon": "121.008",
    "zone_id": "",
    "stop_url": "",
    "location_type": "0",
    "parent_station": "",
    "wheelchair_boarding": "0"
  },
  {
    "stop_id": "LTFRB_1187",
    "stop_code": "",
    "stop_name": "Immaculate Mother Learning Center, Baesa Road, Quirino Highway, Quezon City",
    "stop_desc": "",
    "stop_lat": "14.6802",
    "stop_lon": "121.009",
    "zone_id": "",
    "stop_url": "",
    "location_type": "0",
    "parent_station": "",
    "wheelchair_boarding": "0"
  },
  {
    "stop_id": "LTFRB_1188",
    "stop_code": "",
    "stop_name": "Baesa Road / Roxas Intersection, Quirino Highway, Quezon City",
    "stop_desc": "",
    "stop_lat": "14.6807",
    "stop_lon": "121.009",
    "zone_id": "",
    "stop_url": "",
    "location_type": "0",
    "parent_station": "",
    "wheelchair_boarding": "0"
  },
  {
    "stop_id": "LTFRB_1189",
    "stop_code": "",
    "stop_name": "Roxas, Quirino Highway, Quezon City",
    "stop_desc": "",
    "stop_lat": "14.6797",
    "stop_lon": "121.01",
    "zone_id": "",
    "stop_url": "",
    "location_type": "0",
    "parent_station": "",
    "wheelchair_boarding": "0"
  },
  {
    "stop_id": "LTFRB_119",
    "stop_code": "",
    "stop_name": "Shell Fuel Station, Governor Fortunato Halili Avenue, Bocaue",
    "stop_desc": "",
    "stop_lat": "14.808",
    "stop_lon": "120.943",
    "zone_id": "",
    "stop_url": "",
    "location_type": "0",
    "parent_station": "",
    "wheelchair_boarding": "0"
  },
  {
    "stop_id": "LTFRB_1190",
    "stop_code": "",
    "stop_name": "Roxas, Quirino Highway, Quezon City",
    "stop_desc": "",
    "stop_lat": "14.6786",
    "stop_lon": "121.01",
    "zone_id": "",
    "stop_url": "",
    "location_type": "0",
    "parent_station": "",
    "wheelchair_boarding": "0"
  },
  {
    "stop_id": "LTFRB_1191",
    "stop_code": "",
    "stop_name": "St Francis of Assisi Parish Church, Roxas, Quirino Highway, Quezon City",
    "stop_desc": "",
    "stop_lat": "14.6814",
    "stop_lon": "121.01",
    "zone_id": "",
    "stop_url": "",
    "location_type": "0",
    "parent_station": "",
    "wheelchair_boarding": "0"
  },
  {
    "stop_id": "LTFRB_1192",
    "stop_code": "",
    "stop_name": "Quirino Highway / Masagana Intersection, Quezon City",
    "stop_desc": "",
    "stop_lat": "14.6712",
    "stop_lon": "121.011",
    "zone_id": "",
    "stop_url": "",
    "location_type": "0",
    "parent_station": "",
    "wheelchair_boarding": "0"
  },
  {
    "stop_id": "LTFRB_1193",
    "stop_code": "",
    "stop_name": "Baesa Town Centre, Quirino Highway, Quezon City",
    "stop_desc": "",
    "stop_lat": "14.673",
    "stop_lon": "121.013",
    "zone_id": "",
    "stop_url": "",
    "location_type": "0",
    "parent_station": "",
    "wheelchair_boarding": "0"
  },
  {
    "stop_id": "LTFRB_1194",
    "stop_code": "",
    "stop_name": "Baesa Cemetary, Quirino Highway, Quezon City",
    "stop_desc": "",
    "stop_lat": "14.6742",
    "stop_lon": "121.014",
    "zone_id": "",
    "stop_url": "",
    "location_type": "0",
    "parent_station": "",
    "wheelchair_boarding": "0"
  },
  {
    "stop_id": "LTFRB_1195",
    "stop_code": "",
    "stop_name": "Quirino Highway / Rodriguez Drive Intersection, Quezon City",
    "stop_desc": "",
    "stop_lat": "14.6755",
    "stop_lon": "121.015",
    "zone_id": "",
    "stop_url": "",
    "location_type": "0",
    "parent_station": "",
    "wheelchair_boarding": "0"
  },
  {
    "stop_id": "LTFRB_1196",
    "stop_code": "",
    "stop_name": "Inglesia ni Cristo, Quirino Highway, Quezon City",
    "stop_desc": "",
    "stop_lat": "14.677",
    "stop_lon": "121.016",
    "zone_id": "",
    "stop_url": "",
    "location_type": "0",
    "parent_station": "",
    "wheelchair_boarding": "0"
  },
  {
    "stop_id": "LTFRB_1197",
    "stop_code": "",
    "stop_name": "Quirino Highway / Vipra Intersection, Quezon City",
    "stop_desc": "",
    "stop_lat": "14.679",
    "stop_lon": "121.018",
    "zone_id": "",
    "stop_url": "",
    "location_type": "0",
    "parent_station": "",
    "wheelchair_boarding": "0"
  },
  {
    "stop_id": "LTFRB_1198",
    "stop_code": "",
    "stop_name": "Chowking, Quirino Highway, Quezon City",
    "stop_desc": "",
    "stop_lat": "14.6805",
    "stop_lon": "121.019",
    "zone_id": "",
    "stop_url": "",
    "location_type": "0",
    "parent_station": "",
    "wheelchair_boarding": "0"
  },
  {
    "stop_id": "LTFRB_1199",
    "stop_code": "",
    "stop_name": "SM Supermarket, Quirino Highway, Quezon City",
    "stop_desc": "",
    "stop_lat": "14.6823",
    "stop_lon": "121.021",
    "zone_id": "",
    "stop_url": "",
    "location_type": "0",
    "parent_station": "",
    "wheelchair_boarding": "0"
  },
  {
    "stop_id": "LTFRB_12",
    "stop_code": "",
    "stop_name": "Krusas Wawa Memorial Park, MacArthur Highway, Balagtas",
    "stop_desc": "",
    "stop_lat": "14.8081",
    "stop_lon": "120.917",
    "zone_id": "",
    "stop_url": "",
    "location_type": "0",
    "parent_station": "",
    "wheelchair_boarding": "0"
  },
  {
    "stop_id": "LTFRB_120",
    "stop_code": "",
    "stop_name": "Bulacan Medical Misson Group Cooperative Hospital, Governor  Fortunato Halili Avenue, Bocaue",
    "stop_desc": "",
    "stop_lat": "14.8083",
    "stop_lon": "120.945",
    "zone_id": "",
    "stop_url": "",
    "location_type": "0",
    "parent_station": "",
    "wheelchair_boarding": "0"
  },
  {
    "stop_id": "LTFRB_1200",
    "stop_code": "",
    "stop_name": "Quirino Highway / Kalapati Intersection, Quezon City",
    "stop_desc": "",
    "stop_lat": "14.6837",
    "stop_lon": "121.022",
    "zone_id": "",
    "stop_url": "",
    "location_type": "0",
    "parent_station": "",
    "wheelchair_boarding": "0"
  },
  {
    "stop_id": "LTFRB_1201",
    "stop_code": "",
    "stop_name": "Quirino Highway, Quezon City",
    "stop_desc": "",
    "stop_lat": "14.685",
    "stop_lon": "121.023",
    "zone_id": "",
    "stop_url": "",
    "location_type": "0",
    "parent_station": "",
    "wheelchair_boarding": "0"
  },
  {
    "stop_id": "LTFRB_1202",
    "stop_code": "",
    "stop_name": "Quirino Highway, Quezon City",
    "stop_desc": "",
    "stop_lat": "14.6864",
    "stop_lon": "121.024",
    "zone_id": "",
    "stop_url": "",
    "location_type": "0",
    "parent_station": "",
    "wheelchair_boarding": "0"
  },
  {
    "stop_id": "LTFRB_1203",
    "stop_code": "",
    "stop_name": "Quirino Highway, Quezon City",
    "stop_desc": "",
    "stop_lat": "14.688",
    "stop_lon": "121.026",
    "zone_id": "",
    "stop_url": "",
    "location_type": "0",
    "parent_station": "",
    "wheelchair_boarding": "0"
  },
  {
    "stop_id": "LTFRB_1204",
    "stop_code": "",
    "stop_name": "MAN Bus and Trucks, Quirino Highway, Quezon City",
    "stop_desc": "",
    "stop_lat": "14.6891",
    "stop_lon": "121.026",
    "zone_id": "",
    "stop_url": "",
    "location_type": "0",
    "parent_station": "",
    "wheelchair_boarding": "0"
  },
  {
    "stop_id": "LTFRB_1205",
    "stop_code": "",
    "stop_name": "Tanding Sora Avenue, Quezon City",
    "stop_desc": "",
    "stop_lat": "14.6798",
    "stop_lon": "121.021",
    "zone_id": "",
    "stop_url": "",
    "location_type": "0",
    "parent_station": "",
    "wheelchair_boarding": "0"
  },
  {
    "stop_id": "LTFRB_1206",
    "stop_code": "",
    "stop_name": "Tanding Sora Avenue, Quezon City",
    "stop_desc": "",
    "stop_lat": "14.6795",
    "stop_lon": "121.023",
    "zone_id": "",
    "stop_url": "",
    "location_type": "0",
    "parent_station": "",
    "wheelchair_boarding": "0"
  },
  {
    "stop_id": "LTFRB_1207",
    "stop_code": "",
    "stop_name": "Tanding Sora Avenue, Quezon City",
    "stop_desc": "",
    "stop_lat": "14.6791",
    "stop_lon": "121.025",
    "zone_id": "",
    "stop_url": "",
    "location_type": "0",
    "parent_station": "",
    "wheelchair_boarding": "0"
  },
  {
    "stop_id": "LTFRB_1208",
    "stop_code": "",
    "stop_name": "Jetti Petrol Station, Tanding Sora Avenue, Quezon City",
    "stop_desc": "",
    "stop_lat": "14.6788",
    "stop_lon": "121.027",
    "zone_id": "",
    "stop_url": "",
    "location_type": "0",
    "parent_station": "",
    "wheelchair_boarding": "0"
  },
  {
    "stop_id": "LTFRB_1209",
    "stop_code": "",
    "stop_name": "Tanding Sora Avenue / University Lane Intersection, Quezon City",
    "stop_desc": "",
    "stop_lat": "14.6782",
    "stop_lon": "121.029",
    "zone_id": "",
    "stop_url": "",
    "location_type": "0",
    "parent_station": "",
    "wheelchair_boarding": "0"
  },
  {
    "stop_id": "LTFRB_121",
    "stop_code": "",
    "stop_name": "Mateo's Diagnostic Clinic & General Hospital, Governor Fortunato Halili Avenue, Bocaue",
    "stop_desc": "",
    "stop_lat": "14.8097",
    "stop_lon": "120.947",
    "zone_id": "",
    "stop_url": "",
    "location_type": "0",
    "parent_station": "",
    "wheelchair_boarding": "0"
  },
  {
    "stop_id": "LTFRB_1210",
    "stop_code": "",
    "stop_name": "St James College, Tanding Sora Avenue, Quezon City",
    "stop_desc": "",
    "stop_lat": "14.6775",
    "stop_lon": "121.031",
    "zone_id": "",
    "stop_url": "",
    "location_type": "0",
    "parent_station": "",
    "wheelchair_boarding": "0"
  },
  {
    "stop_id": "LTFRB_1211",
    "stop_code": "",
    "stop_name": "General Avenue, Quezon City",
    "stop_desc": "",
    "stop_lat": "14.6776",
    "stop_lon": "121.026",
    "zone_id": "",
    "stop_url": "",
    "location_type": "0",
    "parent_station": "",
    "wheelchair_boarding": "0"
  },
  {
    "stop_id": "LTFRB_1212",
    "stop_code": "",
    "stop_name": "General Avenue / Gsisea Street Intersection, Quezon City",
    "stop_desc": "",
    "stop_lat": "14.6762",
    "stop_lon": "121.026",
    "zone_id": "",
    "stop_url": "",
    "location_type": "0",
    "parent_station": "",
    "wheelchair_boarding": "0"
  },
  {
    "stop_id": "LTFRB_1213",
    "stop_code": "",
    "stop_name": "General Avenue / Molave Intersection, Quezon City",
    "stop_desc": "",
    "stop_lat": "14.6745",
    "stop_lon": "121.026",
    "zone_id": "",
    "stop_url": "",
    "location_type": "0",
    "parent_station": "",
    "wheelchair_boarding": "0"
  },
  {
    "stop_id": "LTFRB_1214",
    "stop_code": "",
    "stop_name": "General Avenue / Assistant Branchesntersection, Quezon City",
    "stop_desc": "",
    "stop_lat": "14.6731",
    "stop_lon": "121.025",
    "zone_id": "",
    "stop_url": "",
    "location_type": "0",
    "parent_station": "",
    "wheelchair_boarding": "0"
  },
  {
    "stop_id": "LTFRB_1215",
    "stop_code": "",
    "stop_name": "Assistant / Engineering, Quezon City",
    "stop_desc": "",
    "stop_lat": "14.6752",
    "stop_lon": "121.023",
    "zone_id": "",
    "stop_url": "",
    "location_type": "0",
    "parent_station": "",
    "wheelchair_boarding": "0"
  },
  {
    "stop_id": "LTFRB_1216",
    "stop_code": "",
    "stop_name": "Engineering / Manager Intersection, Quezon City",
    "stop_desc": "",
    "stop_lat": "14.6739",
    "stop_lon": "121.023",
    "zone_id": "",
    "stop_url": "",
    "location_type": "0",
    "parent_station": "",
    "wheelchair_boarding": "0"
  },
  {
    "stop_id": "LTFRB_1217",
    "stop_code": "",
    "stop_name": "Engineering / Legal Intersection, Quezon City",
    "stop_desc": "",
    "stop_lat": "14.6721",
    "stop_lon": "121.023",
    "zone_id": "",
    "stop_url": "",
    "location_type": "0",
    "parent_station": "",
    "wheelchair_boarding": "0"
  },
  {
    "stop_id": "LTFRB_1218",
    "stop_code": "",
    "stop_name": "St Mary / Benfits, Quezon City",
    "stop_desc": "",
    "stop_lat": "14.6726",
    "stop_lon": "121.021",
    "zone_id": "",
    "stop_url": "",
    "location_type": "0",
    "parent_station": "",
    "wheelchair_boarding": "0"
  },
  {
    "stop_id": "LTFRB_1219",
    "stop_code": "",
    "stop_name": "Daisol, Quezon City",
    "stop_desc": "",
    "stop_lat": "14.6732",
    "stop_lon": "121.022",
    "zone_id": "",
    "stop_url": "",
    "location_type": "0",
    "parent_station": "",
    "wheelchair_boarding": "0"
  },
  {
    "stop_id": "LTFRB_122",
    "stop_code": "",
    "stop_name": "Green Pond Chinese Resturant, Governor Fortunato Halili Avenue, Bocaue",
    "stop_desc": "",
    "stop_lat": "14.8116",
    "stop_lon": "120.948",
    "zone_id": "",
    "stop_url": "",
    "location_type": "0",
    "parent_station": "",
    "wheelchair_boarding": "0"
  },
  {
    "stop_id": "LTFRB_1220",
    "stop_code": "",
    "stop_name": "Benefits / GSIS Avenue, Quezon City",
    "stop_desc": "",
    "stop_lat": "14.6721",
    "stop_lon": "121.018",
    "zone_id": "",
    "stop_url": "",
    "location_type": "0",
    "parent_station": "",
    "wheelchair_boarding": "0"
  },
  {
    "stop_id": "LTFRB_1221",
    "stop_code": "",
    "stop_name": "Grant, Quezon City",
    "stop_desc": "",
    "stop_lat": "14.6713",
    "stop_lon": "121.02",
    "zone_id": "",
    "stop_url": "",
    "location_type": "0",
    "parent_station": "",
    "wheelchair_boarding": "0"
  },
  {
    "stop_id": "LTFRB_1222",
    "stop_code": "",
    "stop_name": "Shorhorn, Quezon City",
    "stop_desc": "",
    "stop_lat": "14.6694",
    "stop_lon": "121.02",
    "zone_id": "",
    "stop_url": "",
    "location_type": "0",
    "parent_station": "",
    "wheelchair_boarding": "0"
  },
  {
    "stop_id": "LTFRB_1223",
    "stop_code": "",
    "stop_name": "Assistant, Quezon City",
    "stop_desc": "",
    "stop_lat": "14.6739",
    "stop_lon": "121.024",
    "zone_id": "",
    "stop_url": "",
    "location_type": "0",
    "parent_station": "",
    "wheelchair_boarding": "0"
  },
  {
    "stop_id": "LTFRB_1224",
    "stop_code": "",
    "stop_name": "Shorhorn, Quezon City",
    "stop_desc": "",
    "stop_lat": "14.6676",
    "stop_lon": "121.021",
    "zone_id": "",
    "stop_url": "",
    "location_type": "0",
    "parent_station": "",
    "wheelchair_boarding": "0"
  },
  {
    "stop_id": "LTFRB_1225",
    "stop_code": "",
    "stop_name": "Shorhorn, Quezon City",
    "stop_desc": "",
    "stop_lat": "14.6659",
    "stop_lon": "121.022",
    "zone_id": "",
    "stop_url": "",
    "location_type": "0",
    "parent_station": "",
    "wheelchair_boarding": "0"
  },
  {
    "stop_id": "LTFRB_1226",
    "stop_code": "",
    "stop_name": "Shorhorn / Congressional Avenue, Quezon City",
    "stop_desc": "",
    "stop_lat": "14.6636",
    "stop_lon": "121.022",
    "zone_id": "",
    "stop_url": "",
    "location_type": "0",
    "parent_station": "",
    "wheelchair_boarding": "0"
  },
  {
    "stop_id": "LTFRB_1227",
    "stop_code": "",
    "stop_name": "Town and Country Gardenville, Congressional Avenue, Quezon City",
    "stop_desc": "",
    "stop_lat": "14.6665",
    "stop_lon": "121.032",
    "zone_id": "",
    "stop_url": "",
    "location_type": "0",
    "parent_station": "",
    "wheelchair_boarding": "0"
  },
  {
    "stop_id": "LTFRB_1228",
    "stop_code": "",
    "stop_name": "Congressional Avenue, Quezon City",
    "stop_desc": "",
    "stop_lat": "14.6658",
    "stop_lon": "121.031",
    "zone_id": "",
    "stop_url": "",
    "location_type": "0",
    "parent_station": "",
    "wheelchair_boarding": "0"
  },
  {
    "stop_id": "LTFRB_1229",
    "stop_code": "",
    "stop_name": "Congressional Avenue, Quezon City",
    "stop_desc": "",
    "stop_lat": "14.6652",
    "stop_lon": "121.028",
    "zone_id": "",
    "stop_url": "",
    "location_type": "0",
    "parent_station": "",
    "wheelchair_boarding": "0"
  },
  {
    "stop_id": "LTFRB_123",
    "stop_code": "",
    "stop_name": "New Bypass Road, Santa Maria",
    "stop_desc": "",
    "stop_lat": "14.8096",
    "stop_lon": "120.95",
    "zone_id": "",
    "stop_url": "",
    "location_type": "0",
    "parent_station": "",
    "wheelchair_boarding": "0"
  },
  {
    "stop_id": "LTFRB_1230",
    "stop_code": "",
    "stop_name": "Congressional Avenue, Quezon City",
    "stop_desc": "",
    "stop_lat": "14.6645",
    "stop_lon": "121.025",
    "zone_id": "",
    "stop_url": "",
    "location_type": "0",
    "parent_station": "",
    "wheelchair_boarding": "0"
  },
  {
    "stop_id": "LTFRB_1231",
    "stop_code": "",
    "stop_name": "Congressional Avenue, Quezon City",
    "stop_desc": "",
    "stop_lat": "14.6677",
    "stop_lon": "121.034",
    "zone_id": "",
    "stop_url": "",
    "location_type": "0",
    "parent_station": "",
    "wheelchair_boarding": "0"
  },
  {
    "stop_id": "LTFRB_1232",
    "stop_code": "",
    "stop_name": "Congressional Avenue, Quezon City",
    "stop_desc": "",
    "stop_lat": "14.6625",
    "stop_lon": "121.02",
    "zone_id": "",
    "stop_url": "",
    "location_type": "0",
    "parent_station": "",
    "wheelchair_boarding": "0"
  },
  {
    "stop_id": "LTFRB_1233",
    "stop_code": "",
    "stop_name": "Congressional Avenue / Cagayan Intersection Quezon City",
    "stop_desc": "",
    "stop_lat": "14.6607",
    "stop_lon": "121.02",
    "zone_id": "",
    "stop_url": "",
    "location_type": "0",
    "parent_station": "",
    "wheelchair_boarding": "0"
  },
  {
    "stop_id": "LTFRB_1234",
    "stop_code": "",
    "stop_name": "Congressional Avenue / Abra Intersection Quezon City",
    "stop_desc": "",
    "stop_lat": "14.6588",
    "stop_lon": "121.02",
    "zone_id": "",
    "stop_url": "",
    "location_type": "0",
    "parent_station": "",
    "wheelchair_boarding": "0"
  },
  {
    "stop_id": "LTFRB_1235",
    "stop_code": "",
    "stop_name": "Epifanio de los Santos Avenue / Congressional Avenue Intersection, Quezon City",
    "stop_desc": "",
    "stop_lat": "14.6576",
    "stop_lon": "121.02",
    "zone_id": "",
    "stop_url": "",
    "location_type": "0",
    "parent_station": "",
    "wheelchair_boarding": "0"
  },
  {
    "stop_id": "LTFRB_1236",
    "stop_code": "",
    "stop_name": "Epifanio de los Santos Avenue, Quezon City",
    "stop_desc": "",
    "stop_lat": "14.6575",
    "stop_lon": "121.018",
    "zone_id": "",
    "stop_url": "",
    "location_type": "0",
    "parent_station": "",
    "wheelchair_boarding": "0"
  },
  {
    "stop_id": "LTFRB_1237",
    "stop_code": "",
    "stop_name": "Epifanio de los Santos Avenue, Quezon City",
    "stop_desc": "",
    "stop_lat": "14.6575",
    "stop_lon": "121.017",
    "zone_id": "",
    "stop_url": "",
    "location_type": "0",
    "parent_station": "",
    "wheelchair_boarding": "0"
  },
  {
    "stop_id": "LTFRB_1238",
    "stop_code": "",
    "stop_name": "Epifanio de los Santos Avenue, Quezon City",
    "stop_desc": "",
    "stop_lat": "14.6575",
    "stop_lon": "121.014",
    "zone_id": "",
    "stop_url": "",
    "location_type": "0",
    "parent_station": "",
    "wheelchair_boarding": "0"
  },
  {
    "stop_id": "LTFRB_1239",
    "stop_code": "",
    "stop_name": "Epifanio de los Santos Avenue near Walter Mart Service Road, Quezon City",
    "stop_desc": "",
    "stop_lat": "14.6574",
    "stop_lon": "121.022",
    "zone_id": "",
    "stop_url": "",
    "location_type": "0",
    "parent_station": "",
    "wheelchair_boarding": "0"
  },
  {
    "stop_id": "LTFRB_124",
    "stop_code": "",
    "stop_name": "New Bypass Road, Santa Maria",
    "stop_desc": "",
    "stop_lat": "14.81",
    "stop_lon": "120.953",
    "zone_id": "",
    "stop_url": "",
    "location_type": "0",
    "parent_station": "",
    "wheelchair_boarding": "0"
  },
  {
    "stop_id": "LTFRB_1240",
    "stop_code": "",
    "stop_name": "FHELSEN, Epifanio de los Santos Avenue, Quezon City",
    "stop_desc": "",
    "stop_lat": "14.657",
    "stop_lon": "121.023",
    "zone_id": "",
    "stop_url": "",
    "location_type": "0",
    "parent_station": "",
    "wheelchair_boarding": "0"
  },
  {
    "stop_id": "LTFRB_1241",
    "stop_code": "",
    "stop_name": "Phoenix, Epifanio de los Santos Avenue, Quezon City",
    "stop_desc": "",
    "stop_lat": "14.6565",
    "stop_lon": "121.026",
    "zone_id": "",
    "stop_url": "",
    "location_type": "0",
    "parent_station": "",
    "wheelchair_boarding": "0"
  },
  {
    "stop_id": "LTFRB_1242",
    "stop_code": "",
    "stop_name": "Epifanio de los Santos Avenue / Bansalangin Intersection, Quezon City",
    "stop_desc": "",
    "stop_lat": "14.6561",
    "stop_lon": "121.027",
    "zone_id": "",
    "stop_url": "",
    "location_type": "0",
    "parent_station": "",
    "wheelchair_boarding": "0"
  },
  {
    "stop_id": "LTFRB_1243",
    "stop_code": "",
    "stop_name": "Epifanio de los Santos Avenue / Bulacan Intersection, Quezon City",
    "stop_desc": "",
    "stop_lat": "14.6556",
    "stop_lon": "121.029",
    "zone_id": "",
    "stop_url": "",
    "location_type": "0",
    "parent_station": "",
    "wheelchair_boarding": "0"
  },
  {
    "stop_id": "LTFRB_1244",
    "stop_code": "",
    "stop_name": "Epifanio de los Santos Avenue / North Avenue Intersection, Quezon City",
    "stop_desc": "",
    "stop_lat": "14.6554",
    "stop_lon": "121.031",
    "zone_id": "",
    "stop_url": "",
    "location_type": "0",
    "parent_station": "",
    "wheelchair_boarding": "0"
  },
  {
    "stop_id": "LTFRB_1245",
    "stop_code": "",
    "stop_name": "Dangay, Quezon City",
    "stop_desc": "",
    "stop_lat": "14.6568",
    "stop_lon": "121.019",
    "zone_id": "",
    "stop_url": "",
    "location_type": "0",
    "parent_station": "",
    "wheelchair_boarding": "0"
  },
  {
    "stop_id": "LTFRB_1246",
    "stop_code": "",
    "stop_name": "Dangay / Lanutan Intersection, Quezon City",
    "stop_desc": "",
    "stop_lat": "14.6563",
    "stop_lon": "121.022",
    "zone_id": "",
    "stop_url": "",
    "location_type": "0",
    "parent_station": "",
    "wheelchair_boarding": "0"
  },
  {
    "stop_id": "LTFRB_1247",
    "stop_code": "",
    "stop_name": "Dangay / Bansalangin Intersection, Quezon City",
    "stop_desc": "",
    "stop_lat": "14.6558",
    "stop_lon": "121.024",
    "zone_id": "",
    "stop_url": "",
    "location_type": "0",
    "parent_station": "",
    "wheelchair_boarding": "0"
  },
  {
    "stop_id": "LTFRB_1248",
    "stop_code": "",
    "stop_name": "Dangay / Bansalangin Intersection, Quezon City",
    "stop_desc": "",
    "stop_lat": "14.6551",
    "stop_lon": "121.027",
    "zone_id": "",
    "stop_url": "",
    "location_type": "0",
    "parent_station": "",
    "wheelchair_boarding": "0"
  },
  {
    "stop_id": "LTFRB_1249",
    "stop_code": "",
    "stop_name": "Calumpit / Bansalangin Intersection, Quezon City",
    "stop_desc": "",
    "stop_lat": "14.6541",
    "stop_lon": "121.027",
    "zone_id": "",
    "stop_url": "",
    "location_type": "0",
    "parent_station": "",
    "wheelchair_boarding": "0"
  },
  {
    "stop_id": "LTFRB_125",
    "stop_code": "",
    "stop_name": "Dental Clinic, New Bypass Road, Santa Maria",
    "stop_desc": "",
    "stop_lat": "14.8121",
    "stop_lon": "120.956",
    "zone_id": "",
    "stop_url": "",
    "location_type": "0",
    "parent_station": "",
    "wheelchair_boarding": "0"
  },
  {
    "stop_id": "LTFRB_1250",
    "stop_code": "",
    "stop_name": "Bansalangin Intersection, Quezon City",
    "stop_desc": "",
    "stop_lat": "14.6531",
    "stop_lon": "121.026",
    "zone_id": "",
    "stop_url": "",
    "location_type": "0",
    "parent_station": "",
    "wheelchair_boarding": "0"
  },
  {
    "stop_id": "LTFRB_1251",
    "stop_code": "",
    "stop_name": "Kalamansanay / Bansalangin Intersection, Quezon City",
    "stop_desc": "",
    "stop_lat": "14.653",
    "stop_lon": "121.025",
    "zone_id": "",
    "stop_url": "",
    "location_type": "0",
    "parent_station": "",
    "wheelchair_boarding": "0"
  },
  {
    "stop_id": "LTFRB_1252",
    "stop_code": "",
    "stop_name": "Bansalangin, Quezon City",
    "stop_desc": "",
    "stop_lat": "14.6539",
    "stop_lon": "121.024",
    "zone_id": "",
    "stop_url": "",
    "location_type": "0",
    "parent_station": "",
    "wheelchair_boarding": "0"
  },
  {
    "stop_id": "LTFRB_1253",
    "stop_code": "",
    "stop_name": "Calumpit / Bansalangin Intersection, Quezon City",
    "stop_desc": "",
    "stop_lat": "14.655",
    "stop_lon": "121.023",
    "zone_id": "",
    "stop_url": "",
    "location_type": "0",
    "parent_station": "",
    "wheelchair_boarding": "0"
  },